{
"type": "FeatureCollection",
"name": "sitecoffres2",
"crs": { "type": "name", "properties": { "name": "urn:ogc:def:crs:OGC:1.3:CRS84" } },
"features": [
{ "type": "Feature", "properties": { "Commune": "Yopougon", "Quartier": "Gesco Attié", "Type_Capac": "20m3", "Nom": "Dakouri Palmier", "Num_Coffre": 1.0, "X": -4.106028, "Y": 5.374028, "Affectatio": "Précollecte", "Num_Circu": "CDSM_500 - AMPLIROLL/Tt - NOUVEAU", "Amenagemen": "Pas de Plateforme", "Statut": "actif", "Time": "21/05/2024", "Cod": "Yop-286", "fid": 0 }, "geometry": { "type": "Point", "coordinates": [ -4.106028, 5.374028 ] } },
{ "type": "Feature", "properties": { "Commune": "Yopougon", "Quartier": "Zone Industrielle", "Type_Capac": "20m3", "Nom": "Dakouri Gare", "Num_Coffre": 1.0, "X": -4.114, "Y": 5.372806, "Affectatio": "Précollecte", "Num_Circu": "CDSM_500 - AMPLIROLL/Tt - NOUVEAU", "Amenagemen": "Pas de Plateforme", "Statut": "actif", "Time": "21/05/2024", "Cod": "Yop-285", "fid": 1 }, "geometry": { "type": "Point", "coordinates": [ -4.114, 5.372806 ] } },
{ "type": "Feature", "properties": { "Commune": "Yopougon", "Quartier": "Gesco Attié", "Type_Capac": "5m3", "Nom": "Entrée Station Shell", "Num_Coffre": 1.0, "X": -4.10139791, "Y": 5.36738645, "Affectatio": "Collecte", "Num_Circu": "CDSM_107", "Amenagemen": "Pas de plateforme", "Statut": "actif", "Time": "27/04/2024", "Cod": "Yop-284", "fid": 2 }, "geometry": { "type": "Point", "coordinates": [ -4.101397909173231, 5.36738644762073 ] } },
{ "type": "Feature", "properties": { "Commune": "Yopougon", "Quartier": "Gesco Attié", "Type_Capac": "20m3", "Nom": "Gesco Judée", "Num_Coffre": 2.0, "X": -4.10417504, "Y": 5.36890227, "Affectatio": "Précollecte", "Num_Circu": "CDSM_500 - AMPLIROLL/Tt - NOUVEAU", "Amenagemen": "Pas de plateforme", "Statut": "actif", "Time": "17/05/2024", "Cod": "Yop-158", "fid": 3 }, "geometry": { "type": "Point", "coordinates": [ -4.104175044225082, 5.36890227490261 ] } },
{ "type": "Feature", "properties": { "Commune": "Yopougon", "Quartier": "Yopougon Kouté", "Type_Capac": "5m3", "Nom": "Sogefiha 5", "Num_Coffre": 1.0, "X": -4.0654, "Y": 5.3265, "Affectatio": "Collecte", "Num_Circu": "CDSM_102", "Amenagemen": "Pas de Plateforme", "Statut": "actif", "Time": "05/06/2024", "Cod": "Yop-290", "fid": 4 }, "geometry": { "type": "Point", "coordinates": [ -4.0654, 5.3265 ] } },
{ "type": "Feature", "properties": { "Commune": "Yopougon", "Quartier": "Gesco Attié", "Type_Capac": "5m3", "Nom": "Micao Forage", "Num_Coffre": 1.0, "X": -4.1104749, "Y": 5.372455, "Affectatio": "Collecte", "Num_Circu": "CDSM_PC", "Amenagemen": "Pas de Plateforme", "Statut": "actif", "Time": "05/06/2024", "Cod": "Yop-289", "fid": 5 }, "geometry": { "type": "Point", "coordinates": [ -4.1104749, 5.372455 ] } },
{ "type": "Feature", "properties": { "Commune": "Yopougon", "Quartier": "Gesco Attié", "Type_Capac": "5m3", "Nom": "Micao Carrefour Sodeci", "Num_Coffre": 1.0, "X": -4.10230556, "Y": 5.378639, "Affectatio": "Collecte", "Num_Circu": "CDSM_PC", "Amenagemen": "Pas de Plateforme", "Statut": "actif", "Time": "21/05/2024", "Cod": "Yop-288", "fid": 6 }, "geometry": { "type": "Point", "coordinates": [ -4.102305555555556, 5.378639 ] } },
{ "type": "Feature", "properties": { "Commune": "Yopougon", "Quartier": "Gesco Attié", "Type_Capac": "5m3", "Nom": "Dakouri", "Num_Coffre": 1.0, "X": -4.10602778, "Y": 5.373583, "Affectatio": "Collecte", "Num_Circu": "CDSM_PC", "Amenagemen": "Pas de Plateforme", "Statut": "actif", "Time": "21/05/2024", "Cod": "Yop-287", "fid": 7 }, "geometry": { "type": "Point", "coordinates": [ -4.106027777777778, 5.373583 ] } },
{ "type": "Feature", "properties": { "Commune": "Attécoubé", "Quartier": "Agban Attié", "Type_Capac": "20m3", "Nom": "Sibéton 1", "Num_Coffre": 1.0, "X": -4.04563889, "Y": 5.35808333, "Affectatio": "Précollecte", "Num_Circu": "CDSM_500 - AMPLIROLL/Tt - NOUVEAU", "Amenagemen": "Plateforme pour 1 coffre", "Statut": "actif", "Time": "08/07/2024", "Cod": "Att-64", "fid": 8 }, "geometry": { "type": "Point", "coordinates": [ -4.045638888888891, 5.358083333333331 ] } },
{ "type": "Feature", "properties": { "Commune": "Attécoubé", "Quartier": "Agban Attié", "Type_Capac": "20m3", "Nom": "Carrefour Thomas", "Num_Coffre": 2.0, "X": -4.05052778, "Y": 5.35591667, "Affectatio": "Précollecte", "Num_Circu": "CDSM_500 - AMPLIROLL/Tt - NOUVEAU", "Amenagemen": "Plateforme pour 1 coffre", "Statut": "actif", "Time": "08/07/2024", "Cod": "Att-68", "fid": 9 }, "geometry": { "type": "Point", "coordinates": [ -4.050527777777778, 5.355916666666666 ] } },
{ "type": "Feature", "properties": { "Commune": "Adjamé", "Quartier": "Sodeci - Filtisac", "Type_Capac": "20m3", "Nom": "Garage marché mouton", "Num_Coffre": 0.0, "X": -4.02930833, "Y": 5.37051944, "Affectatio": "Précollecte", "Num_Circu": "CDSM_500 - AMPLIROLL/Tt - NOUVEAU", "Amenagemen": "Pas de Plateforme", "Statut": "supprimé", "Time": "27/06/2024", "Cod": "Adj-43", "fid": 10 }, "geometry": { "type": "Point", "coordinates": [ -4.029308333333335, 5.370519444444443 ] } },
{ "type": "Feature", "properties": { "Commune": "Yopougon", "Quartier": "Koweit", "Type_Capac": "20m3", "Nom": "Kowéït Canal", "Num_Coffre": 1.0, "X": -4.05286908, "Y": 5.32168045, "Affectatio": "Précollecte", "Num_Circu": "CDSM_500 - AMPLIROLL/Tt - NOUVEAU", "Amenagemen": "Pas de Plateforme", "Statut": "actif", "Time": "31/05/2024", "Cod": "Yop-291", "fid": 11 }, "geometry": { "type": "Point", "coordinates": [ -4.0528690760895, 5.321680448186688 ] } },
{ "type": "Feature", "properties": { "Commune": "Yopougon", "Quartier": "Banco Nord", "Type_Capac": "5m3", "Nom": "Feu de Complexe", "Num_Coffre": 1.0, "X": -4.06223774, "Y": 5.3401333, "Affectatio": "Collecte", "Num_Circu": "CDSM_102", "Amenagemen": null, "Statut": "actif", "Time": "17/05/2024", "Cod": "Yop-280\n", "fid": 12 }, "geometry": { "type": "Point", "coordinates": [ -4.062237744588828, 5.340133300831952 ] } },
{ "type": "Feature", "properties": { "Commune": "Yopougon", "Quartier": "Banco Nord", "Type_Capac": "5m3", "Nom": "BICICI Nouveau Quartier", "Num_Coffre": 1.0, "X": -4.06223075, "Y": 5.33817581, "Affectatio": "Collecte", "Num_Circu": "CDSM_102", "Amenagemen": "Pas de plateforme", "Statut": "actif", "Time": "24/04/2024", "Cod": "Yop-182", "fid": 13 }, "geometry": { "type": "Point", "coordinates": [ -4.062230753402289, 5.338175812057719 ] } },
{ "type": "Feature", "properties": { "Commune": "Yopougon", "Quartier": "Niangon Adjamé 2ème Extension", "Type_Capac": "5m3", "Nom": "Au Charbon", "Num_Coffre": 1.0, "X": -4.11569489, "Y": 5.33762942, "Affectatio": "Collecte", "Num_Circu": "CDSM_107", "Amenagemen": "Pas de Plateforme", "Statut": "actif", "Time": "15/04/2024", "Cod": "Yop-271", "fid": 14 }, "geometry": { "type": "Point", "coordinates": [ -4.115694892223737, 5.337629423723007 ] } },
{ "type": "Feature", "properties": { "Commune": "Yopougon", "Quartier": "Yopougon Hopital", "Type_Capac": "4m3", "Nom": "Pharmacie de Gesco Marché", "Num_Coffre": 1.0, "X": -4.09730053, "Y": 5.36360103, "Affectatio": "Collecte", "Num_Circu": "CDSM_107", "Amenagemen": "Pas de plateforme", "Statut": "actif", "Time": "12/04/2024", "Cod": "Yop-270", "fid": 15 }, "geometry": { "type": "Point", "coordinates": [ -4.097300534966359, 5.363601025561785 ] } },
{ "type": "Feature", "properties": { "Commune": "Attécoubé", "Quartier": "Bidjan-Té", "Type_Capac": "5m3", "Nom": "Biegoussi", "Num_Coffre": 1.0, "X": -4.03247455, "Y": 5.34544822, "Affectatio": "Collecte", "Num_Circu": "CSDM_109,CSDM_122", "Amenagemen": "Pas de plateforme", "Statut": "actif", "Time": "24/04/2024", "Cod": "Att-67", "fid": 16 }, "geometry": { "type": "Point", "coordinates": [ -4.032474547423663, 5.34544822015001 ] } },
{ "type": "Feature", "properties": { "Commune": "Attécoubé", "Quartier": "Espoir", "Type_Capac": "5m3", "Nom": "Au Charbon", "Num_Coffre": 1.0, "X": -4.03788509, "Y": 5.34854438, "Affectatio": "Collecte", "Num_Circu": "CSDM_109,CSDM_122", "Amenagemen": "Pas de Plateforme", "Statut": "actif", "Time": "24/04/2024", "Cod": "Att-66", "fid": 17 }, "geometry": { "type": "Point", "coordinates": [ -4.037885092946522, 5.348544378979899 ] } },
{ "type": "Feature", "properties": { "Commune": "Attécoubé", "Quartier": "La Paix", "Type_Capac": "4m3", "Nom": "Pharmacie Fatima", "Num_Coffre": 1.0, "X": -4.03826064, "Y": 5.34661806, "Affectatio": "Collecte", "Num_Circu": "CDSM_109_CDSM_122", "Amenagemen": "Pas de plateforme", "Statut": "actif", "Time": "24/04/2024", "Cod": "Att-65\n", "fid": 18 }, "geometry": { "type": "Point", "coordinates": [ -4.038260642442958, 5.346618064073679 ] } },
{ "type": "Feature", "properties": { "Commune": "Yopougon", "Quartier": "Banco Nord", "Type_Capac": "4m3", "Nom": "Quatrième Pont Toit Rouge", "Num_Coffre": 1.0, "X": -4.05496368, "Y": 5.33584432, "Affectatio": "Collecte", "Num_Circu": "CDSM_110", "Amenagemen": "Pas de plateforme", "Statut": "actif", "Time": "17/05/2024", "Cod": "Yop-281", "fid": 19 }, "geometry": { "type": "Point", "coordinates": [ -4.054963676628953, 5.335844324232149 ] } },
{ "type": "Feature", "properties": { "Commune": "Yopougon", "Quartier": "Niangon Nord 2ème Tranche", "Type_Capac": "5m3", "Nom": "Marché Bagnon 2", "Num_Coffre": 1.0, "X": -4.11032493, "Y": 5.33920145, "Affectatio": "Collecte", "Num_Circu": "CDSM_107", "Amenagemen": null, "Statut": "actif", "Time": "25/04/2024", "Cod": "Yop-283", "fid": 20 }, "geometry": { "type": "Point", "coordinates": [ -4.110324932213747, 5.339201450755186 ] } },
{ "type": "Feature", "properties": { "Commune": "Yopougon", "Quartier": "Niangon Nord 2ème Tranche", "Type_Capac": "5m3", "Nom": "Marché Bagnon 1", "Num_Coffre": 1.0, "X": -4.11140726, "Y": 5.33806449, "Affectatio": "Collecte", "Num_Circu": "CDSM_107", "Amenagemen": "Pas de plateforme", "Statut": "actif", "Time": "17/05/2024", "Cod": "Yop-282", "fid": 21 }, "geometry": { "type": "Point", "coordinates": [ -4.111407255297112, 5.338064487896766 ] } },
{ "type": "Feature", "properties": { "Commune": "Yopougon", "Quartier": "Cimetière", "Type_Capac": "4m3", "Nom": "Pharmacie Moyaé", "Num_Coffre": 1.0, "X": -4.10836362, "Y": 5.34340803, "Affectatio": "Collecte", "Num_Circu": "CDSM_107", "Amenagemen": "Pas de Plateforme", "Statut": "actif", "Time": "17/05/2024", "Cod": "Yop-186", "fid": 22 }, "geometry": { "type": "Point", "coordinates": [ -4.10836362318382, 5.343408028483744 ] } },
{ "type": "Feature", "properties": { "Commune": "Adjamé", "Quartier": "Williamsville 2", "Type_Capac": "4m3", "Nom": "EPV Konaté", "Num_Coffre": 1.0, "X": -4.01780378, "Y": 5.36341684, "Affectatio": "Collecte", "Num_Circu": "CDSM_111_CDSM_123", "Amenagemen": "Pas de plateforme", "Statut": "actif", "Time": "24/04/2024", "Cod": "Adj-44", "fid": 23 }, "geometry": { "type": "Point", "coordinates": [ -4.017803782662329, 5.363416835255553 ] } },
{ "type": "Feature", "properties": { "Commune": "Adjamé", "Quartier": "Délégation", "Type_Capac": "20m3", "Nom": "Cité Ran", "Num_Coffre": 0.0, "X": -4.0284425, "Y": 5.35626566, "Affectatio": "Précollecte", "Num_Circu": "CDSM_500 - AMPLIROLL/Tt - NOUVEAU", "Amenagemen": "Pas de Plateforme", "Statut": "supprimé", "Time": "07/05/2024", "Cod": "Adj-42", "fid": 24 }, "geometry": { "type": "Point", "coordinates": [ -4.028442498121081, 5.356265661347006 ] } },
{ "type": "Feature", "properties": { "Commune": "Yopougon", "Quartier": "Yopougon Kouté", "Type_Capac": "20m3", "Nom": "Sideci IGES", "Num_Coffre": 2.0, "X": -4.08033902, "Y": 5.32119619, "Affectatio": "Précollecte", "Num_Circu": "CDSM_500 - AMPLIROLL/Tt - NOUVEAU", "Amenagemen": "Pas de Plateforme", "Statut": "actif", "Time": "17/05/2024", "Cod": "Yop-183", "fid": 25 }, "geometry": { "type": "Point", "coordinates": [ -4.08033902451709, 5.321196191047925 ] } },
{ "type": "Feature", "properties": { "Commune": "Yopougon", "Quartier": "Gesco Attié", "Type_Capac": "20m3", "Nom": "Gesco Corridor (Gendamérie)", "Num_Coffre": 1.0, "X": -4.10329269, "Y": 5.36788089, "Affectatio": "EcoEburnie", "Num_Circu": "CDSM_500 - AMPLIROLL/Tt - NOUVEAU", "Amenagemen": "Pas de plateforme", "Statut": "actif", "Time": "13/02/2025", "Cod": "Yop-169", "fid": 26 }, "geometry": { "type": "Point", "coordinates": [ -4.103292690817535, 5.367880891721811 ] } },
{ "type": "Feature", "properties": { "Commune": "Yopougon", "Quartier": "Yopougon Attié", "Type_Capac": "20m3", "Nom": "Aimé Césaire", "Num_Coffre": 2.0, "X": -4.08375878, "Y": 5.34385341, "Affectatio": "Précollecte", "Num_Circu": "CDSM_500 - AMPLIROLL/Tt - NOUVEAU", "Amenagemen": "Plateforme pour 1 coffre", "Statut": "actif", "Time": "17/05/2024", "Cod": "Yop-261", "fid": 27 }, "geometry": { "type": "Point", "coordinates": [ -4.083758780569263, 5.343853413260393 ] } },
{ "type": "Feature", "properties": { "Commune": "Yopougon", "Quartier": "Gesco Attié", "Type_Capac": "4m3", "Nom": "Marché Bédié", "Num_Coffre": 1.0, "X": -4.10003316, "Y": 5.36111104, "Affectatio": "Collecte", "Num_Circu": "CDSM_107", "Amenagemen": "Plateforme pour 1 coffre", "Statut": "actif", "Time": "15/02/2024", "Cod": "Yop-260", "fid": 28 }, "geometry": { "type": "Point", "coordinates": [ -4.100033155666957, 5.361111040929472 ] } },
{ "type": "Feature", "properties": { "Commune": "Yopougon", "Quartier": "Gesco Attié", "Type_Capac": "20m3", "Nom": "CMEAU", "Num_Coffre": 2.0, "X": -4.10299933, "Y": 5.35433189, "Affectatio": "Précollecte", "Num_Circu": "CDSM_500 - AMPLIROLL/Tt - NOUVEAU", "Amenagemen": "Plateforme pour 1 coffre", "Statut": "actif", "Time": "15/02/2024", "Cod": "Yop-74", "fid": 29 }, "geometry": { "type": "Point", "coordinates": [ -4.102999329293077, 5.354331885534833 ] } },
{ "type": "Feature", "properties": { "Commune": "Adjamé", "Quartier": "Indénié - Adjamé", "Type_Capac": "4m3", "Nom": "80 Logement", "Num_Coffre": 1.0, "X": -4.01749433, "Y": 5.34656114, "Affectatio": "Collecte", "Num_Circu": "CDSM_124_CDSM_111", "Amenagemen": "Pas de Plateforme", "Statut": "actif", "Time": "23/02/2024", "Cod": "Adj-41", "fid": 30 }, "geometry": { "type": "Point", "coordinates": [ -4.017494329962691, 5.346561140836278 ] } },
{ "type": "Feature", "properties": { "Commune": "Adjamé", "Quartier": "Williamsville 1", "Type_Capac": "20m3", "Nom": "Marché Oignon", "Num_Coffre": 3.0, "X": -4.02796414, "Y": 5.36658626, "Affectatio": "Précollecte", "Num_Circu": "CDSM_500 - AMPLIROLL/Tt - NOUVEAU", "Amenagemen": "Pas de Plateforme", "Statut": "actif", "Time": "22/02/2024", "Cod": "Adj-40", "fid": 31 }, "geometry": { "type": "Point", "coordinates": [ -4.027964138331631, 5.366586256614569 ] } },
{ "type": "Feature", "properties": { "Commune": "Adjamé", "Quartier": "Adjamé Nord", "Type_Capac": "20m3", "Nom": "Gare Nord (Sotra)", "Num_Coffre": 1.0, "X": -4.027, "Y": 5.3592, "Affectatio": "Précollecte", "Num_Circu": "CDSM_500 - AMPLIROLL/Tt - NOUVEAU", "Amenagemen": "Pas de Plateforme", "Statut": "actif", "Time": "17/05/2024", "Cod": "Adj-39", "fid": 32 }, "geometry": { "type": "Point", "coordinates": [ -4.027, 5.3592 ] } },
{ "type": "Feature", "properties": { "Commune": "Adjamé", "Quartier": "220 Logements", "Type_Capac": "5m3", "Nom": "PIT", "Num_Coffre": 1.0, "X": -4.014, "Y": 5.3513, "Affectatio": "Collecte", "Num_Circu": "CDSM-111", "Amenagemen": "Pas de Plateforme", "Statut": "actif", "Time": "22/02/2024", "Cod": "Adj-38", "fid": 33 }, "geometry": { "type": "Point", "coordinates": [ -4.014, 5.3513 ] } },
{ "type": "Feature", "properties": { "Commune": "Attécoubé", "Quartier": "Némantoulaye", "Type_Capac": "5m3", "Nom": "Mosquée Nématoulaye", "Num_Coffre": 1.0, "X": -4.04569882, "Y": 5.35295767, "Affectatio": "Collecte", "Num_Circu": "CDSM_110, CDSM_122", "Amenagemen": "Pas de Plateforme", "Statut": "actif", "Time": "01/04/2024", "Cod": "Att-30", "fid": 34 }, "geometry": { "type": "Point", "coordinates": [ -4.045698823073591, 5.352957667463321 ] } },
{ "type": "Feature", "properties": { "Commune": "Yopougon", "Quartier": "Niangon Sud Est", "Type_Capac": "4m3", "Nom": "Agefosyn Niangon", "Num_Coffre": 1.0, "X": -4.09026179, "Y": 5.32386149, "Affectatio": "Collecte", "Num_Circu": "CDSM_108", "Amenagemen": "Pas de Plateforme", "Statut": "actif", "Time": "17/05/2024", "Cod": "Yop-266", "fid": 35 }, "geometry": { "type": "Point", "coordinates": [ -4.090261792524961, 5.323861494020788 ] } },
{ "type": "Feature", "properties": { "Commune": "Yopougon", "Quartier": "Yopougon Kouté", "Type_Capac": "20m3", "Nom": "Chapouli Canal", "Num_Coffre": 0.0, "X": -4.06391667, "Y": 5.31580556, "Affectatio": "EcoEburnie", "Num_Circu": "CDSM_500-Ampiroll", "Amenagemen": "Pas de Plateforme", "Statut": "supprimé", "Time": "22/05/2024", "Cod": "Yop-263", "fid": 36 }, "geometry": { "type": "Point", "coordinates": [ -4.063916666666667, 5.315805555555555 ] } },
{ "type": "Feature", "properties": { "Commune": "Yopougon", "Quartier": "Yopougon Attié", "Type_Capac": "4m3", "Nom": "Quatrième Pont Nouveau quartier", "Num_Coffre": 1.0, "X": -4.06238889, "Y": 5.33641667, "Affectatio": "Collecte", "Num_Circu": "CDSM_102", "Amenagemen": "Pas de Plateforme", "Statut": "actif", "Time": "17/05/2024", "Cod": "Yop-264", "fid": 37 }, "geometry": { "type": "Point", "coordinates": [ -4.062388888888889, 5.336416666666666 ] } },
{ "type": "Feature", "properties": { "Commune": "Yopougon", "Quartier": "Zone Industrielle", "Type_Capac": "20m3", "Nom": "Micao V28", "Num_Coffre": 2.0, "X": -4.09604019, "Y": 5.39456088, "Affectatio": "Précollecte", "Num_Circu": "CDSM_500 - AMPLIROLL/Tt - NOUVEAU", "Amenagemen": "Pas de Plateforme", "Statut": "actif", "Time": "10/04/2024", "Cod": "Yop-269", "fid": 38 }, "geometry": { "type": "Point", "coordinates": [ -4.096040190348979, 5.394560882329616 ] } },
{ "type": "Feature", "properties": { "Commune": "Yopougon", "Quartier": "Gesco Attié", "Type_Capac": "5m3", "Nom": "Gesco Pays-Bas", "Num_Coffre": 0.0, "X": -4.11953383, "Y": 5.37281086, "Affectatio": "Collecte", "Num_Circu": "CDSM_107", "Amenagemen": "Pas de Plateforme", "Statut": "supprimé", "Time": "27/03/2024", "Cod": "Yop-268", "fid": 39 }, "geometry": { "type": "Point", "coordinates": [ -4.119533834646288, 5.372810864534211 ] } },
{ "type": "Feature", "properties": { "Commune": "Yopougon", "Quartier": "Zone Industrielle", "Type_Capac": "5m3", "Nom": "Rond Point Cité Ado", "Num_Coffre": 1.0, "X": -4.08987553, "Y": 5.40128379, "Affectatio": "Collecte", "Num_Circu": "CDSM_PC", "Amenagemen": "Pas de Aménagement", "Statut": "actif", "Time": "12/10/2023", "Cod": "Yop-235", "fid": 40 }, "geometry": { "type": "Point", "coordinates": [ -4.089875526001459, 5.401283788843927 ] } },
{ "type": "Feature", "properties": { "Commune": "Yopougon", "Quartier": "Gesco Attié", "Type_Capac": "5m3", "Nom": "Batim", "Num_Coffre": 1.0, "X": -4.0987266, "Y": 5.35839987, "Affectatio": "Collecte", "Num_Circu": "CDSM_106", "Amenagemen": "Pas de Plateforme", "Statut": "actif", "Time": "23/12/2023", "Cod": "Yop-247", "fid": 41 }, "geometry": { "type": "Point", "coordinates": [ -4.098726596918123, 5.358399872096838 ] } },
{ "type": "Feature", "properties": { "Commune": "Yopougon", "Quartier": "Zone Industrielle", "Type_Capac": "20m3", "Nom": "Vakabadougou 2", "Num_Coffre": 1.0, "X": -4.09013196, "Y": 5.41151314, "Affectatio": "EcoEburnie", "Num_Circu": "CDSM_507 - AMPLIROLL - YOPOUGON – EEB", "Amenagemen": "Pas de plateforme", "Statut": "actif", "Time": "20/12/2023", "Cod": "Yop-262", "fid": 42 }, "geometry": { "type": "Point", "coordinates": [ -4.090131958946586, 5.411513135768473 ] } },
{ "type": "Feature", "properties": { "Commune": "Songon", "Quartier": null, "Type_Capac": "5m3", "Nom": "Carrefour Salem", "Num_Coffre": 1.0, "X": -4.17052726, "Y": 5.33920132, "Affectatio": "Collecte", "Num_Circu": "CDSM_101", "Amenagemen": "Pas de Plateforme", "Statut": "actif", "Time": "20/12/2023", "Cod": "Son-69", "fid": 43 }, "geometry": { "type": "Point", "coordinates": [ -4.170527259042331, 5.339201324216068 ] } },
{ "type": "Feature", "properties": { "Commune": "Songon", "Quartier": "Adiapoté 2", "Type_Capac": "5m3", "Nom": "Adiapoté 2", "Num_Coffre": 1.0, "X": -4.17762242, "Y": 5.31031487, "Affectatio": "Collecte", "Num_Circu": "CDSM_PC", "Amenagemen": "Pas de Plateforme", "Statut": "actif", "Time": "20/12/2023", "Cod": "Son-27", "fid": 44 }, "geometry": { "type": "Point", "coordinates": [ -4.177622421981874, 5.310314867385569 ] } },
{ "type": "Feature", "properties": { "Commune": "Yopougon", "Quartier": "Bonikro", "Type_Capac": "4m3", "Nom": "Carrefour Sako", "Num_Coffre": 1.0, "X": -4.10456389, "Y": 5.35021111, "Affectatio": "Collecte", "Num_Circu": "CDSM_107", "Amenagemen": "Plateforme pour 1 coffre", "Statut": "actif", "Time": "15/02/2024", "Cod": "Yop-250", "fid": 45 }, "geometry": { "type": "Point", "coordinates": [ -4.104563888888888, 5.35021111111111 ] } },
{ "type": "Feature", "properties": { "Commune": "Yopougon", "Quartier": "Niangon Adjamé 2ème Extension", "Type_Capac": "4m3", "Nom": "Boulangerie Epis d'or", "Num_Coffre": 1.0, "X": -4.1100179, "Y": 5.34023404, "Affectatio": "Collecte", "Num_Circu": "CDSM_107", "Amenagemen": "Plateforme pour 1 coffre", "Statut": "actif", "Time": "15/02/2024", "Cod": "Yop-249", "fid": 46 }, "geometry": { "type": "Point", "coordinates": [ -4.110017904422914, 5.340234042541299 ] } },
{ "type": "Feature", "properties": { "Commune": "Songon", "Quartier": "M'bratté", "Type_Capac": "20m3", "Nom": "M'Bratté", "Num_Coffre": 1.0, "X": -4.25962097, "Y": 5.3170473, "Affectatio": "Précollecte", "Num_Circu": "CDSM_500 - AMPLIROLL/Tt - NOUVEAU", "Amenagemen": "Pas de Plateforme", "Statut": "actif", "Time": "30/01/2024", "Cod": "Son-70", "fid": 47 }, "geometry": { "type": "Point", "coordinates": [ -4.259620969846605, 5.317047304539503 ] } },
{ "type": "Feature", "properties": { "Commune": "Yopougon", "Quartier": "Yopougon Attié", "Type_Capac": "5m3", "Nom": "Uniwax", "Num_Coffre": 1.0, "X": -4.07935229, "Y": 5.36158344, "Affectatio": "Collecte", "Num_Circu": "CDSM_111", "Amenagemen": "Pas de Plateforme", "Statut": "actif", "Time": "25/04/2024", "Cod": "Yop-248", "fid": 48 }, "geometry": { "type": "Point", "coordinates": [ -4.079352291827012, 5.361583440346775 ] } },
{ "type": "Feature", "properties": { "Commune": "Yopougon", "Quartier": "Niangon Adjamé 2ème Extension", "Type_Capac": "4m3", "Nom": "Marché Niangon Adjamé", "Num_Coffre": 1.0, "X": -4.11397222, "Y": 5.33780556, "Affectatio": "Collecte", "Num_Circu": "CDSM_107", "Amenagemen": "Plateforme pour 1 coffre", "Statut": "actif", "Time": "15/02/2024", "Cod": "Yop-254", "fid": 49 }, "geometry": { "type": "Point", "coordinates": [ -4.11397222222222, 5.337805555555556 ] } },
{ "type": "Feature", "properties": { "Commune": "Yopougon", "Quartier": "Gesco Attié", "Type_Capac": "20m3", "Nom": "Super Marché Gesco", "Num_Coffre": 1.0, "X": -4.09980258, "Y": 5.36200735, "Affectatio": "Précollecte", "Num_Circu": "CDSM_500 - AMPLIROLL/Tt - NOUVEAU", "Amenagemen": "Plateforme pour 1coffre", "Statut": "actif", "Time": "15/02/2024", "Cod": "Yop-253", "fid": 50 }, "geometry": { "type": "Point", "coordinates": [ -4.099802579956003, 5.362007346618398 ] } },
{ "type": "Feature", "properties": { "Commune": "Yopougon", "Quartier": "Ananeraie", "Type_Capac": "4m3", "Nom": "Pharmacie Alicia", "Num_Coffre": 1.0, "X": -4.10352778, "Y": 5.35197222, "Affectatio": "Collecte", "Num_Circu": "CDSM_107", "Amenagemen": "Plateforme pour 1 coffre", "Statut": "actif", "Time": "15/02/2024", "Cod": "Yop-251", "fid": 51 }, "geometry": { "type": "Point", "coordinates": [ -4.103527777777776, 5.35197222222222 ] } },
{ "type": "Feature", "properties": { "Commune": "Yopougon", "Quartier": "Yopougon Agbayaté", "Type_Capac": "4m3", "Nom": "Carrefour Santé", "Num_Coffre": 1.0, "X": -4.04405556, "Y": 5.30936111, "Affectatio": "Collecte", "Num_Circu": "CDSM_105", "Amenagemen": "Pas de Plateforme", "Statut": "actif", "Time": "15/02/2024", "Cod": "Yop-257", "fid": 52 }, "geometry": { "type": "Point", "coordinates": [ -4.044055555555556, 5.309361111111111 ] } },
{ "type": "Feature", "properties": { "Commune": "Yopougon", "Quartier": "Niangon Adjamé 2ème Extension", "Type_Capac": "4m3", "Nom": "Carrefour Kiosque", "Num_Coffre": 1.0, "X": -4.1195717, "Y": 5.33737499, "Affectatio": "Collecte", "Num_Circu": "CDSM_107", "Amenagemen": "Plateforme pour 1 coffre", "Statut": "actif", "Time": "15/02/2024", "Cod": "Yop-117", "fid": 53 }, "geometry": { "type": "Point", "coordinates": [ -4.119571701901804, 5.337374992366113 ] } },
{ "type": "Feature", "properties": { "Commune": "Yopougon", "Quartier": "Niangon Adjamé", "Type_Capac": "4m3", "Nom": "Garage Niangon Adjamé", "Num_Coffre": 1.0, "X": -4.11943004, "Y": 5.33710643, "Affectatio": "Collecte", "Num_Circu": "CDSM_107", "Amenagemen": "Plateforme pour 1 coffre", "Statut": "actif", "Time": "15/02/2024", "Cod": "Yop-256", "fid": 54 }, "geometry": { "type": "Point", "coordinates": [ -4.119430041497705, 5.337106427227789 ] } },
{ "type": "Feature", "properties": { "Commune": "Yopougon", "Quartier": "Ananeraie", "Type_Capac": "4m3", "Nom": "Carrefour Barrique", "Num_Coffre": 1.0, "X": -4.10600122, "Y": 5.34680677, "Affectatio": "Collecte", "Num_Circu": "CDSM_107", "Amenagemen": "Plateforme pour 1 coffre", "Statut": "actif", "Time": "15/02/2024", "Cod": "Yop-255", "fid": 55 }, "geometry": { "type": "Point", "coordinates": [ -4.106001222429764, 5.346806767691992 ] } },
{ "type": "Feature", "properties": { "Commune": "Yopougon", "Quartier": "Niangon Sud Est", "Type_Capac": "4m3", "Nom": "Texaco Mairie Technique Niangon", "Num_Coffre": 1.0, "X": -4.09138315, "Y": 5.32761828, "Affectatio": "Collecte", "Num_Circu": "CDSM_108", "Amenagemen": "Pas de Plateforme", "Statut": "actif", "Time": "12/12/2024", "Cod": "Yop-239", "fid": 56 }, "geometry": { "type": "Point", "coordinates": [ -4.091383150844575, 5.327618283818292 ] } },
{ "type": "Feature", "properties": { "Commune": "Yopougon", "Quartier": "Niangon Nord 2ème Tranche", "Type_Capac": "5m3", "Nom": "Groupe Scolaire Akoï", "Num_Coffre": 1.0, "X": -4.09703442, "Y": 5.33191407, "Affectatio": "Collecte", "Num_Circu": "CDSM_106", "Amenagemen": "Pas de Plateforme", "Statut": "actif", "Time": "26/10/2023", "Cod": "Yop-228", "fid": 57 }, "geometry": { "type": "Point", "coordinates": [ -4.097034417017804, 5.331914068057408 ] } },
{ "type": "Feature", "properties": { "Commune": "Yopougon", "Quartier": "Zone Industrielle", "Type_Capac": "20m3", "Nom": "Vakabadougou 1", "Num_Coffre": 1.0, "X": -4.0903141, "Y": 5.40930015, "Affectatio": "EcoEburnie", "Num_Circu": "CDSM_507 - AMPLIROLL - YOPOUGON – EEB\n", "Amenagemen": "Pas de plateforme", "Statut": "actif", "Time": "23/10/2023", "Cod": "Yop-217", "fid": 58 }, "geometry": { "type": "Point", "coordinates": [ -4.090314097702501, 5.409300145693122 ] } },
{ "type": "Feature", "properties": { "Commune": "Attécoubé", "Quartier": "Abidjan Agban", "Type_Capac": "5m3", "Nom": "Pharmacie Agban-Gare STB", "Num_Coffre": 1.0, "X": -4.0313349, "Y": 5.35892832, "Affectatio": "Collecte", "Num_Circu": "CDSM_110", "Amenagemen": "Pas de Plateforme", "Statut": "actif", "Time": "17/10/2023", "Cod": "Att-62", "fid": 59 }, "geometry": { "type": "Point", "coordinates": [ -4.031334897177939, 5.358928315790251 ] } },
{ "type": "Feature", "properties": { "Commune": "Yopougon", "Quartier": "Niangon Sud Est", "Type_Capac": "5m3", "Nom": "Pont Saint Rita", "Num_Coffre": 1.0, "X": -4.09588415, "Y": 5.32748599, "Affectatio": "Collecte", "Num_Circu": "CDSM_108", "Amenagemen": "Pas de Plateforme", "Statut": "actif", "Time": "06/12/2023", "Cod": "Yop-241", "fid": 60 }, "geometry": { "type": "Point", "coordinates": [ -4.095884149223131, 5.327485993980506 ] } },
{ "type": "Feature", "properties": { "Commune": "Attécoubé", "Quartier": "La Paix", "Type_Capac": "5m3", "Nom": "Carrefour sacrifice", "Num_Coffre": 0.0, "X": -4.03724479, "Y": 5.34761469, "Affectatio": "Collecte", "Num_Circu": "CDSM_109 - CDSM_122", "Amenagemen": null, "Statut": "supprimé", "Time": "22/05/2024", "Cod": "Att-63", "fid": 61 }, "geometry": { "type": "Point", "coordinates": [ -4.037244793682551, 5.3476146947251 ] } },
{ "type": "Feature", "properties": { "Commune": "Yopougon", "Quartier": "Niangon Sud Ouest", "Type_Capac": "5m3", "Nom": "Pharmacie Maty", "Num_Coffre": 1.0, "X": -4.10339512, "Y": 5.33274738, "Affectatio": "Collecte", "Num_Circu": "CDSM_106", "Amenagemen": "Pas de Plateforme", "Statut": "actif", "Time": "14/12/2023", "Cod": "Yop-240", "fid": 62 }, "geometry": { "type": "Point", "coordinates": [ -4.1033951180799, 5.332747384476683 ] } },
{ "type": "Feature", "properties": { "Commune": "Yopougon", "Quartier": "Niangon Nord 2ème Tranche", "Type_Capac": "4m3", "Nom": "Pont Kimi", "Num_Coffre": 2.0, "X": -4.0943613, "Y": 5.33959997, "Affectatio": "Collecte", "Num_Circu": "CDSM_108", "Amenagemen": "Pas de Plateforme", "Statut": "actif", "Time": "23/05/2025", "Cod": "Yop-226", "fid": 63 }, "geometry": { "type": "Point", "coordinates": [ -4.094361299497947, 5.33959996798329 ] } },
{ "type": "Feature", "properties": { "Commune": "Yopougon", "Quartier": "Niangon Lokoa", "Type_Capac": "20m3", "Nom": "Lokoa Amigo", "Num_Coffre": 1.0, "X": -4.10812498, "Y": 5.31097142, "Affectatio": "Précollecte", "Num_Circu": "CDSM_500 - AMPLIROLL/Tt - NOUVEAU", "Amenagemen": "Pas de Plateforme", "Statut": "actif", "Time": "12/12/2023", "Cod": "Yop-111", "fid": 64 }, "geometry": { "type": "Point", "coordinates": [ -4.108124975233785, 5.310971423929566 ] } },
{ "type": "Feature", "properties": { "Commune": "Yopougon", "Quartier": "Yopougon Hopital", "Type_Capac": "20m3", "Nom": "Intérieur de BAE", "Num_Coffre": 1.0, "X": -4.08868906, "Y": 5.36336778, "Affectatio": "EcoEburnie", "Num_Circu": "CDSM_507 - AMPLIROLL-YOPOUGON–EEB", "Amenagemen": "Pas de Plateforme", "Statut": "actif", "Time": "05/03/2025", "Cod": "Yop-145", "fid": 65 }, "geometry": { "type": "Point", "coordinates": [ -4.08868906328532, 5.363367775736229 ] } },
{ "type": "Feature", "properties": { "Commune": "Yopougon", "Quartier": "Village Andokoi", "Type_Capac": "5m3", "Nom": "Mur du lycée Andokoi", "Num_Coffre": 0.0, "X": -4.06703129, "Y": 5.3634732, "Affectatio": "Collecte", "Num_Circu": "CDSM_PC", "Amenagemen": "Pas de Plateforme", "Statut": "supprimé", "Time": "07/12/2023", "Cod": "Yop-243", "fid": 66 }, "geometry": { "type": "Point", "coordinates": [ -4.067031286154462, 5.363473200951758 ] } },
{ "type": "Feature", "properties": { "Commune": "Yopougon", "Quartier": "Niangon Sud Ouest", "Type_Capac": "4m3", "Nom": "Pont Lubafrique", "Num_Coffre": 1.0, "X": -4.10119008, "Y": 5.32863095, "Affectatio": "Collecte", "Num_Circu": "CDSM_108", "Amenagemen": "Pas de plateforme", "Statut": "actif", "Time": "06/12/2023", "Cod": "Yop-242", "fid": 67 }, "geometry": { "type": "Point", "coordinates": [ -4.101190078493982, 5.328630948411964 ] } },
{ "type": "Feature", "properties": { "Commune": "Yopougon", "Quartier": "Niangon Sud Ouest", "Type_Capac": "5m3", "Nom": "Pont Jatak", "Num_Coffre": 1.0, "X": -4.10280317, "Y": 5.32142086, "Affectatio": "Collecte", "Num_Circu": "CDSM_108", "Amenagemen": "Pas de plateforme", "Statut": "actif", "Time": "17/05/2024", "Cod": "Yop-245", "fid": 68 }, "geometry": { "type": "Point", "coordinates": [ -4.10280317117986, 5.32142085553861 ] } },
{ "type": "Feature", "properties": { "Commune": "Yopougon", "Quartier": "Béago", "Type_Capac": "20m3", "Nom": "Béago cimetière", "Num_Coffre": 1.0, "X": -4.07075643, "Y": 5.30856708, "Affectatio": "Précollecte", "Num_Circu": "CDSM_500 - AMPLIROLL/Tt - NOUVEAU", "Amenagemen": "Pas de plateforme", "Statut": "actif", "Time": "17/05/2024", "Cod": "Yop-244", "fid": 69 }, "geometry": { "type": "Point", "coordinates": [ -4.070756432901105, 5.308567081875298 ] } },
{ "type": "Feature", "properties": { "Commune": "Yopougon", "Quartier": "Béago", "Type_Capac": "20m3", "Nom": "Béago École", "Num_Coffre": 1.0, "X": -4.07229286, "Y": 5.30636077, "Affectatio": "Précollecte", "Num_Circu": "CDSM_500 - AMPLIROLL/Tt - NOUVEAU", "Amenagemen": "Pas de plateforme", "Statut": "actif", "Time": "12/12/2023", "Cod": "Yop-225", "fid": 70 }, "geometry": { "type": "Point", "coordinates": [ -4.072292861957025, 5.306360773631435 ] } },
{ "type": "Feature", "properties": { "Commune": "Adjamé", "Quartier": "Ebrié", "Type_Capac": "20m3", "Nom": "Carine couture", "Num_Coffre": 0.0, "X": -4.01501022, "Y": 5.3559873, "Affectatio": "Précollecte", "Num_Circu": "CDSM_500 - AMPLIROLL/Tt - NOUVEAU", "Amenagemen": "Pas de Plateforme", "Statut": "supprimé", "Time": "18/09/2023", "Cod": "Adj-21", "fid": 71 }, "geometry": { "type": "Point", "coordinates": [ -4.015010219078308, 5.355987301481004 ] } },
{ "type": "Feature", "properties": { "Commune": "Songon", "Quartier": "Bimbresso", "Type_Capac": "20m3", "Nom": "Carrefour Bimbresso", "Num_Coffre": 0.0, "X": -4.14978505, "Y": 5.34178312, "Affectatio": "Précollecte", "Num_Circu": "CDSM_500 - AMPLIROLL/Tt - NOUVEAU", "Amenagemen": "Pas Plateforme", "Statut": "supprimé", "Time": "01/02/2023", "Cod": "Son-2", "fid": 72 }, "geometry": { "type": "Point", "coordinates": [ -4.149785051932435, 5.341783118074665 ] } },
{ "type": "Feature", "properties": { "Commune": "Attécoubé", "Quartier": "Loukoukro", "Type_Capac": "20m3", "Nom": "Loukoukro - Carrefour mossikro", "Num_Coffre": 0.0, "X": -4.04519347, "Y": 5.34486902, "Affectatio": "Précollecte", "Num_Circu": "CDSM_500 - AMPLIROLL/Tt - NOUVEAU", "Amenagemen": "Pas de Plateforme", "Statut": "supprimé", "Time": "18/09/2023", "Cod": "Att-40", "fid": 73 }, "geometry": { "type": "Point", "coordinates": [ -4.045193473767588, 5.344869022462563 ] } },
{ "type": "Feature", "properties": { "Commune": "Yopougon", "Quartier": "Jérusalem 1", "Type_Capac": "5m3", "Nom": "EPP BAD", "Num_Coffre": 0.0, "X": -4.04393443, "Y": 5.31484795, "Affectatio": "Collecte", "Num_Circu": "CDSM_105", "Amenagemen": "Pas de Plateforme", "Statut": "supprimé", "Time": "21/12/2023", "Cod": "Yop-200", "fid": 74 }, "geometry": { "type": "Point", "coordinates": [ -4.043934429016414, 5.314847950469379 ] } },
{ "type": "Feature", "properties": { "Commune": "Yopougon", "Quartier": "Ananeraie", "Type_Capac": "5m3", "Nom": "Carrefour Mamie Adjoua", "Num_Coffre": 0.0, "X": -4.09533914, "Y": 5.35788744, "Affectatio": "Collecte", "Num_Circu": "CSDM_106", "Amenagemen": "Pas de Plateforme", "Statut": "supprimé", "Time": "07/11/2023", "Cod": "Yop-210", "fid": 75 }, "geometry": { "type": "Point", "coordinates": [ -4.095339138257166, 5.357887437811424 ] } },
{ "type": "Feature", "properties": { "Commune": "Yopougon", "Quartier": "Niangon Nord 1ère Tranche", "Type_Capac": "5m3", "Nom": "Carrefour Obama", "Num_Coffre": 0.0, "X": -4.09246535, "Y": 5.33956506, "Affectatio": "Collecte", "Num_Circu": "CDSM_103", "Amenagemen": "Pas de Plateforme", "Statut": "supprimé", "Time": "01/12/2023", "Cod": "Yop-180", "fid": 76 }, "geometry": { "type": "Point", "coordinates": [ -4.092465346642276, 5.339565060198939 ] } },
{ "type": "Feature", "properties": { "Commune": "Yopougon", "Quartier": "Yopougon Banco Sud", "Type_Capac": "5m3", "Nom": "Jeunes Filles Singa", "Num_Coffre": 0.0, "X": -4.04906859, "Y": 5.32900195, "Affectatio": "Collecte", "Num_Circu": "CDSM_105", "Amenagemen": "Pas de Plateforme", "Statut": "supprimé", "Time": "06/12/2023", "Cod": "Yop-174", "fid": 77 }, "geometry": { "type": "Point", "coordinates": [ -4.04906859154996, 5.329001953641059 ] } },
{ "type": "Feature", "properties": { "Commune": "Yopougon", "Quartier": "Yopougon Banco Sud", "Type_Capac": "5m3", "Nom": "Covid_Pharmacie Toit Rouge", "Num_Coffre": 0.0, "X": -4.05586231, "Y": 5.33138364, "Affectatio": "Collecte", "Num_Circu": "CSDM_110,CSDM_105,CSDM_122", "Amenagemen": "Pas de Plateforme", "Statut": "supprimé", "Time": "06/12/2023", "Cod": "Yop-213", "fid": 78 }, "geometry": { "type": "Point", "coordinates": [ -4.055862310950982, 5.331383644789301 ] } },
{ "type": "Feature", "properties": { "Commune": "Yopougon", "Quartier": "Yopougon Agbayaté", "Type_Capac": "5m3", "Nom": "Pharmacie chenain", "Num_Coffre": 1.0, "X": -4.0440575, "Y": 5.31985375, "Affectatio": "Collecte", "Num_Circu": "CDSM_105", "Amenagemen": "Pas de Plateforme", "Statut": "actif", "Time": "24/04/2024", "Cod": "Yop-85", "fid": 79 }, "geometry": { "type": "Point", "coordinates": [ -4.04405750418512, 5.319853753393772 ] } },
{ "type": "Feature", "properties": { "Commune": "Yopougon", "Quartier": "Béago", "Type_Capac": "5m3", "Nom": "Béago Village", "Num_Coffre": 0.0, "X": -4.07294806, "Y": 5.30621632, "Affectatio": "Collecte", "Num_Circu": "CDSM_PC", "Amenagemen": "Pas de Plateforme", "Statut": "supprimé", "Time": "21/12/2023", "Cod": "Yop-100", "fid": 80 }, "geometry": { "type": "Point", "coordinates": [ -4.07294806060492, 5.306216317536347 ] } },
{ "type": "Feature", "properties": { "Commune": "Yopougon", "Quartier": "Niangon Adjamé 2ème Extension", "Type_Capac": "20m3", "Nom": "Bouguinisso avant dalot", "Num_Coffre": 1.0, "X": -4.12175917, "Y": 5.3426291, "Affectatio": "Précollecte", "Num_Circu": "CDSM_500 - AMPLIROLL/Tt - NOUVEAU", "Amenagemen": "Pas de Plateforme", "Statut": "actif", "Time": "25/04/2024", "Cod": "Yop-118", "fid": 81 }, "geometry": { "type": "Point", "coordinates": [ -4.121759165304519, 5.342629099525351 ] } },
{ "type": "Feature", "properties": { "Commune": "Yopougon", "Quartier": "Garage Machine", "Type_Capac": "5m3", "Nom": "Banco panneau orange", "Num_Coffre": 1.0, "X": -4.05738162, "Y": 5.35854679, "Affectatio": "Collecte", "Num_Circu": "CDSM_110", "Amenagemen": "Pas de Plateforme", "Statut": "actif", "Time": "07/12/2024", "Cod": "Yop-76", "fid": 82 }, "geometry": { "type": "Point", "coordinates": [ -4.057381623321652, 5.358546792359241 ] } },
{ "type": "Feature", "properties": { "Commune": "Adjamé", "Quartier": "Indénié - Adjamé", "Type_Capac": "5m3", "Nom": "CNPS", "Num_Coffre": 0.0, "X": -4.02184958, "Y": 5.34166296, "Affectatio": "Collecte", "Num_Circu": "CDSM_111", "Amenagemen": "Pas de Plateforme", "Statut": "supprimé", "Time": "22/05/2024", "Cod": "Adj-30", "fid": 83 }, "geometry": { "type": "Point", "coordinates": [ -4.02184957504395, 5.341662958764993 ] } },
{ "type": "Feature", "properties": { "Commune": "Adjamé", "Quartier": null, "Type_Capac": "5m3", "Nom": "INSP", "Num_Coffre": 0.0, "X": -4.02628101, "Y": 5.33926585, "Affectatio": "Collecte", "Num_Circu": "CDSM_111", "Amenagemen": "Pas de Plateforme", "Statut": "supprimé", "Time": "24/04/2024", "Cod": "Adj-29", "fid": 84 }, "geometry": { "type": "Point", "coordinates": [ -4.026281009731339, 5.339265854383469 ] } },
{ "type": "Feature", "properties": { "Commune": "Attécoubé", "Quartier": "Sébroko", "Type_Capac": "5m3", "Nom": "Sebroko", "Num_Coffre": 0.0, "X": -4.03030754, "Y": 5.33976112, "Affectatio": "Collecte", "Num_Circu": "CDSM_109, CDSM_122", "Amenagemen": "Pas de Plateforme", "Statut": "supprimé", "Time": "21/02/2023", "Cod": "Att-44", "fid": 85 }, "geometry": { "type": "Point", "coordinates": [ -4.030307536712688, 5.339761115603562 ] } },
{ "type": "Feature", "properties": { "Commune": "Songon", "Quartier": "Agban Village", "Type_Capac": "20m3", "Nom": "Agban pharmacie (mosquée)", "Num_Coffre": 0.0, "X": -4.25251402, "Y": 5.326027, "Affectatio": "Précollecte", "Num_Circu": "CDSM_500 - AMPLIROLL/Tt - NOUVEAU", "Amenagemen": "Pas de Plateforme", "Statut": "supprimé", "Time": "08/12/2023", "Cod": "Son-67", "fid": 86 }, "geometry": { "type": "Point", "coordinates": [ -4.252514023438231, 5.326027004462453 ] } },
{ "type": "Feature", "properties": { "Commune": "Songon", "Quartier": null, "Type_Capac": "5m3", "Nom": "Bimbresso Marché", "Num_Coffre": 1.0, "X": -4.15499327, "Y": 5.31695284, "Affectatio": "Collecte", "Num_Circu": "CDSM_101", "Amenagemen": "Pas de Plateforme", "Statut": "actif", "Time": "28/11/2023", "Cod": "Son-66", "fid": 87 }, "geometry": { "type": "Point", "coordinates": [ -4.154993266622402, 5.316952844841896 ] } },
{ "type": "Feature", "properties": { "Commune": "Songon", "Quartier": "Abadjin Doumé", "Type_Capac": "5m3", "Nom": "Abadjin Doumé Chef Village", "Num_Coffre": 1.0, "X": -4.14601002, "Y": 5.31091595, "Affectatio": "Collecte", "Num_Circu": "CDSM_PC", "Amenagemen": "Pas de Plateforme", "Statut": "actif", "Time": "28/11/2023", "Cod": "Son-65", "fid": 88 }, "geometry": { "type": "Point", "coordinates": [ -4.146010020648857, 5.310915954611533 ] } },
{ "type": "Feature", "properties": { "Commune": "Songon", "Quartier": "Kassemblé Village", "Type_Capac": "5m3", "Nom": "Kassemblé Cité Promogim", "Num_Coffre": 1.0, "X": -4.21408691, "Y": 5.32764304, "Affectatio": "Collecte", "Num_Circu": "CDSM_101", "Amenagemen": "Pas de Plateforme", "Statut": "actif", "Time": "31/10/2023", "Cod": "Son-64", "fid": 89 }, "geometry": { "type": "Point", "coordinates": [ -4.214086911486598, 5.327643035818212 ] } },
{ "type": "Feature", "properties": { "Commune": "Yopougon", "Quartier": "Yopougon Attié", "Type_Capac": "20m3", "Nom": "Gare KS", "Num_Coffre": 1.0, "X": -4.07057965, "Y": 5.34601286, "Affectatio": "Précollecte", "Num_Circu": "CDSM_500 - AMPLIROLL/Tt - NOUVEAU", "Amenagemen": "Pas de Plateforme", "Statut": "actif", "Time": "13/11/2023", "Cod": "Yop-3", "fid": 90 }, "geometry": { "type": "Point", "coordinates": [ -4.070579654980353, 5.346012859157928 ] } },
{ "type": "Feature", "properties": { "Commune": "Yopougon", "Quartier": "Yopougon Attié", "Type_Capac": "20m3", "Nom": "Ficgayo", "Num_Coffre": 1.0, "X": -4.07299637, "Y": 5.34965918, "Affectatio": "Précollecte", "Num_Circu": "CDSM_500 - AMPLIROLL/Tt - NOUVEAU", "Amenagemen": "Pas de Plateforme", "Statut": "actif", "Time": "08/12/2023", "Cod": "Yop-2", "fid": 91 }, "geometry": { "type": "Point", "coordinates": [ -4.072996365167387, 5.349659180914385 ] } },
{ "type": "Feature", "properties": { "Commune": "Yopougon", "Quartier": "Banco Nord", "Type_Capac": "20m3", "Nom": "Wally", "Num_Coffre": 1.0, "X": -4.06244426, "Y": 5.35799171, "Affectatio": "Précollecte", "Num_Circu": "CDSM_500 - AMPLIROLL/Tt - NOUVEAU", "Amenagemen": "Plateforme pour 1 coffre", "Statut": "actif", "Time": "08/12/2023", "Cod": "Yop-1", "fid": 92 }, "geometry": { "type": "Point", "coordinates": [ -4.062444256592158, 5.357991708305305 ] } },
{ "type": "Feature", "properties": { "Commune": "Songon", "Quartier": "N'djèm", "Type_Capac": "20m3", "Nom": "Groupe Scolaire (N'Djèm)", "Num_Coffre": 1.0, "X": -4.23291671, "Y": 5.26977782, "Affectatio": "EcoEburnie", "Num_Circu": "CDSM_506 - AMPLIROLL - SONGON – EEB", "Amenagemen": "Pas de Plateforme", "Statut": "actif", "Time": "13/11/2023", "Cod": "Son-68", "fid": 93 }, "geometry": { "type": "Point", "coordinates": [ -4.232916707977459, 5.269777822628129 ] } },
{ "type": "Feature", "properties": { "Commune": "Yopougon", "Quartier": "Yopougon Banco Sud", "Type_Capac": "20m3", "Nom": "Marché Toit Rouge", "Num_Coffre": 2.0, "X": -4.04835416, "Y": 5.32650041, "Affectatio": "Précollecte", "Num_Circu": "CDSM_500 - AMPLIROLL/Tt - NOUVEAU", "Amenagemen": "Plateforme pour 2 coffres", "Statut": "actif", "Time": "12/12/2023", "Cod": "Yop-7", "fid": 94 }, "geometry": { "type": "Point", "coordinates": [ -4.048354161977565, 5.326500410671875 ] } },
{ "type": "Feature", "properties": { "Commune": "Yopougon", "Quartier": "Banco Nord", "Type_Capac": "20m3", "Nom": "Lycée jeune fille", "Num_Coffre": 1.0, "X": -4.05078183, "Y": 5.34572147, "Affectatio": "Précollecte", "Num_Circu": "CDSM_500 - AMPLIROLL/Tt - NOUVEAU", "Amenagemen": "Plateforme pour 1", "Statut": "actif", "Time": "08/12/2023", "Cod": "Yop-6", "fid": 95 }, "geometry": { "type": "Point", "coordinates": [ -4.050781831686145, 5.345721468453825 ] } },
{ "type": "Feature", "properties": { "Commune": "Yopougon", "Quartier": "Yopougon Attié", "Type_Capac": "20m3", "Nom": "Rue des Princes (Complexe Sportif)", "Num_Coffre": 2.0, "X": -4.06433085, "Y": 5.34209369, "Affectatio": "Précollecte", "Num_Circu": "CDSM_500 - AMPLIROLL/Tt - NOUVEAU", "Amenagemen": "Pas de Plateforme", "Statut": "actif", "Time": "10/04/2024", "Cod": "Yop-5", "fid": 96 }, "geometry": { "type": "Point", "coordinates": [ -4.064330852065917, 5.342093687703523 ] } },
{ "type": "Feature", "properties": { "Commune": "Yopougon", "Quartier": "Yopougon Attié", "Type_Capac": "20m3", "Nom": "Marché Selmer", "Num_Coffre": 1.0, "X": -4.0691167, "Y": 5.34072863, "Affectatio": "Précollecte", "Num_Circu": "CDSM_500 - AMPLIROLL/Tt - NOUVEAU", "Amenagemen": "Plateforme pour 1", "Statut": "actif", "Time": "12/12/2023", "Cod": "Yop-4", "fid": 97 }, "geometry": { "type": "Point", "coordinates": [ -4.069116695744716, 5.340728626724147 ] } },
{ "type": "Feature", "properties": { "Commune": "Yopougon", "Quartier": "Yopougon Kouté", "Type_Capac": "20m3", "Nom": "Chapouli Terrain", "Num_Coffre": 6.0, "X": -4.06078534, "Y": 5.31478574, "Affectatio": "Précollecte", "Num_Circu": "CDSM_500 - AMPLIROLL/Tt - NOUVEAU", "Amenagemen": "Pas de Plateforme", "Statut": "actif", "Time": "12/12/2023", "Cod": "Yop-13", "fid": 98 }, "geometry": { "type": "Point", "coordinates": [ -4.060785339310678, 5.314785744425294 ] } },
{ "type": "Feature", "properties": { "Commune": "Yopougon", "Quartier": "Koweit", "Type_Capac": "20m3", "Nom": "Koweit Lagune", "Num_Coffre": 0.0, "X": -4.05173996, "Y": 5.30985583, "Affectatio": "Précollecte", "Num_Circu": "CDSM_500 - AMPLIROLL/Tt - NOUVEAU", "Amenagemen": "Plateforme pour 1", "Statut": "supprimé", "Time": "03/04/2024", "Cod": "Yop-10", "fid": 99 }, "geometry": { "type": "Point", "coordinates": [ -4.05173995535481, 5.309855828595525 ] } },
{ "type": "Feature", "properties": { "Commune": "Yopougon", "Quartier": "Yopougon Agbayaté", "Type_Capac": "20m3", "Nom": "Santé village", "Num_Coffre": 1.0, "X": -4.04564625, "Y": 5.30574935, "Affectatio": "Précollecte", "Num_Circu": "CDSM_500 - AMPLIROLL/Tt - NOUVEAU", "Amenagemen": "Plateforme pour 1", "Statut": "actif", "Time": "12/12/2023", "Cod": "Yop-9", "fid": 100 }, "geometry": { "type": "Point", "coordinates": [ -4.045646252244228, 5.305749354778981 ] } },
{ "type": "Feature", "properties": { "Commune": "Yopougon", "Quartier": "Yopougon Agbayaté", "Type_Capac": "20m3", "Nom": "Grand Maxime", "Num_Coffre": 0.0, "X": -4.04872654, "Y": 5.3204595, "Affectatio": "Précollecte", "Num_Circu": "CDSM_500 - AMPLIROLL/Tt - NOUVEAU", "Amenagemen": "Pas de Plateforme", "Statut": "supprimé", "Time": "22/05/2024", "Cod": "Yop-8", "fid": 101 }, "geometry": { "type": "Point", "coordinates": [ -4.048726542231976, 5.320459503887475 ] } },
{ "type": "Feature", "properties": { "Commune": "Songon", "Quartier": "N'djèm", "Type_Capac": "20m3", "Nom": "Pont Jacqueville (N'djèm)", "Num_Coffre": 1.0, "X": -4.23921497, "Y": 5.2717597, "Affectatio": "EcoEburnie", "Num_Circu": "CDSM_506 - AMPLIROLL - SONGON – EEB", "Amenagemen": "Pas Plateforme", "Statut": "actif", "Time": "13/11/2023", "Cod": "Son-43", "fid": 102 }, "geometry": { "type": "Point", "coordinates": [ -4.239214967338387, 5.271759698932798 ] } },
{ "type": "Feature", "properties": { "Commune": "Songon", "Quartier": "Agban Village", "Type_Capac": "5m3", "Nom": "Abiathé Carrefour", "Num_Coffre": 1.0, "X": -4.25812688, "Y": 5.32560282, "Affectatio": "Collecte", "Num_Circu": "CDSM_101", "Amenagemen": "Pas de Plateforme", "Statut": "actif", "Time": "31/10/2023", "Cod": "Son-42", "fid": 103 }, "geometry": { "type": "Point", "coordinates": [ -4.258126878580142, 5.325602821110144 ] } },
{ "type": "Feature", "properties": { "Commune": "Songon", "Quartier": "Kassemblé Village", "Type_Capac": "5m3", "Nom": "Kassemblé Cité N'zikan", "Num_Coffre": 1.0, "X": -4.2010482, "Y": 5.32637343, "Affectatio": "Collecte", "Num_Circu": "CDSM_101", "Amenagemen": "Pas de Plateforme", "Statut": "actif", "Time": "12/12/2023", "Cod": "Son-34", "fid": 104 }, "geometry": { "type": "Point", "coordinates": [ -4.201048202968917, 5.326373433500487 ] } },
{ "type": "Feature", "properties": { "Commune": "Songon", "Quartier": null, "Type_Capac": "5m3", "Nom": "Adiapoto 1", "Num_Coffre": 2.0, "X": -4.1924211, "Y": 5.31339674, "Affectatio": "Collecte", "Num_Circu": "CDSM_PC", "Amenagemen": "Pas de Plateforme", "Statut": "actif", "Time": "28/11/2023", "Cod": "Son-29", "fid": 105 }, "geometry": { "type": "Point", "coordinates": [ -4.192421104303959, 5.313396737990763 ] } },
{ "type": "Feature", "properties": { "Commune": "Songon", "Quartier": "Kassemblé Village", "Type_Capac": "5m3", "Nom": "Kassemblé SODECI", "Num_Coffre": 1.0, "X": -4.21118917, "Y": 5.32564629, "Affectatio": "Collecte", "Num_Circu": "CDSM_101", "Amenagemen": "Pas de Plateforme", "Statut": "actif", "Time": "30/01/2024", "Cod": "Son-49", "fid": 106 }, "geometry": { "type": "Point", "coordinates": [ -4.2111891720562, 5.325646285296298 ] } },
{ "type": "Feature", "properties": { "Commune": "Songon", "Quartier": null, "Type_Capac": "5m3", "Nom": "Bimbresso CNRA", "Num_Coffre": 1.0, "X": -4.15448892, "Y": 5.31505259, "Affectatio": "Collecte", "Num_Circu": "CDSM_101", "Amenagemen": "Pas de Plateforme", "Statut": "actif", "Time": "28/11/2023", "Cod": "Son-47", "fid": 107 }, "geometry": { "type": "Point", "coordinates": [ -4.154488922251784, 5.315052589612296 ] } },
{ "type": "Feature", "properties": { "Commune": "Songon", "Quartier": "Kassemblé Village", "Type_Capac": "20m3", "Nom": "Kasemblé manioc", "Num_Coffre": 1.0, "X": -4.21342926, "Y": 5.31483276, "Affectatio": "EcoEburnie", "Num_Circu": "CDSM_506 - AMPLIROLL - SONGON – EEB", "Amenagemen": "Pas Plateforme", "Statut": "actif", "Time": "13/11/2023", "Cod": "Son-46", "fid": 108 }, "geometry": { "type": "Point", "coordinates": [ -4.21342926035561, 5.314832762808254 ] } },
{ "type": "Feature", "properties": { "Commune": "Songon", "Quartier": "Kassemblé Village", "Type_Capac": "20m3", "Nom": "Kasemblé terrain", "Num_Coffre": 1.0, "X": -4.21098547, "Y": 5.31376579, "Affectatio": "EcoEburnie", "Num_Circu": "CDSM_506 - AMPLIROLL - SONGON – EEB", "Amenagemen": "Pas Plateforme", "Statut": "actif", "Time": "13/11/2023", "Cod": "Son-45", "fid": 109 }, "geometry": { "type": "Point", "coordinates": [ -4.210985473227773, 5.313765786587663 ] } },
{ "type": "Feature", "properties": { "Commune": "Songon", "Quartier": null, "Type_Capac": "5m3", "Nom": "Attié 1", "Num_Coffre": 1.0, "X": -4.24599648, "Y": 5.35357833, "Affectatio": "Collecte", "Num_Circu": "CDSM_PC", "Amenagemen": "Pas de Plateforme", "Statut": "actif", "Time": "29/05/2025", "Cod": "Son-55", "fid": 110 }, "geometry": { "type": "Point", "coordinates": [ -4.245996479277585, 5.353578333323736 ] } },
{ "type": "Feature", "properties": { "Commune": "Songon", "Quartier": "Dagbé Village", "Type_Capac": "5m3", "Nom": "Dagbé 2", "Num_Coffre": 1.0, "X": -4.22831068, "Y": 5.31268148, "Affectatio": "Collecte", "Num_Circu": "CDSM_PC", "Amenagemen": "Pas de Plateforme", "Statut": "actif", "Time": "31/10/2023", "Cod": "Son-54", "fid": 111 }, "geometry": { "type": "Point", "coordinates": [ -4.228310677460813, 5.312681482649507 ] } },
{ "type": "Feature", "properties": { "Commune": "Songon", "Quartier": "Dagbé Village", "Type_Capac": "5m3", "Nom": "Dagbé 1", "Num_Coffre": 1.0, "X": -4.22935481, "Y": 5.31275628, "Affectatio": "Collecte", "Num_Circu": "CDSM_PC", "Amenagemen": "Pas de Plateforme", "Statut": "actif", "Time": "31/10/2023", "Cod": "Son-53", "fid": 112 }, "geometry": { "type": "Point", "coordinates": [ -4.229354810705405, 5.312756282014481 ] } },
{ "type": "Feature", "properties": { "Commune": "Songon", "Quartier": "Kassemblé Village", "Type_Capac": "5m3", "Nom": "Kassemblé entrée Cité", "Num_Coffre": 2.0, "X": -4.21159053, "Y": 5.32134973, "Affectatio": "Collecte", "Num_Circu": "CDSM_101", "Amenagemen": "Pas de Plateforme", "Statut": "actif", "Time": "31/10/2023", "Cod": "Son-51", "fid": 113 }, "geometry": { "type": "Point", "coordinates": [ -4.211590529910423, 5.321349726901409 ] } },
{ "type": "Feature", "properties": { "Commune": "Songon", "Quartier": "Kassemblé Village", "Type_Capac": "5m3", "Nom": "Kassemblé Cité Arc-en-ciel", "Num_Coffre": 1.0, "X": -4.20670598, "Y": 5.32408586, "Affectatio": "Collecte", "Num_Circu": "CDSM_101", "Amenagemen": "Pas de Plateforme", "Statut": "actif", "Time": "31/10/2023", "Cod": "Son-63", "fid": 114 }, "geometry": { "type": "Point", "coordinates": [ -4.206705980322373, 5.324085858404129 ] } },
{ "type": "Feature", "properties": { "Commune": "Songon", "Quartier": "Kassemblé Village", "Type_Capac": "5m3", "Nom": "kassemblé cité venus", "Num_Coffre": 2.0, "X": -4.21510523, "Y": 5.32236807, "Affectatio": "Collecte", "Num_Circu": "CDSM_101", "Amenagemen": "Pas de Plateforme", "Statut": "actif", "Time": "31/10/2023", "Cod": "Son-62", "fid": 115 }, "geometry": { "type": "Point", "coordinates": [ -4.215105227801965, 5.32236807218077 ] } },
{ "type": "Feature", "properties": { "Commune": "Songon", "Quartier": "M'bratté", "Type_Capac": "5m3", "Nom": "M'bratté Ecole Primaire", "Num_Coffre": 1.0, "X": -4.25739966, "Y": 5.32430011, "Affectatio": "Collecte", "Num_Circu": "CDSM_101", "Amenagemen": "Pas de Plateforme", "Statut": "actif", "Time": "31/10/2023", "Cod": "Son-59", "fid": 116 }, "geometry": { "type": "Point", "coordinates": [ -4.257399660410096, 5.324300107505696 ] } },
{ "type": "Feature", "properties": { "Commune": "Songon", "Quartier": "Abiatté village", "Type_Capac": "5m3", "Nom": "Abiatté village", "Num_Coffre": 1.0, "X": -4.29169046, "Y": 5.38569205, "Affectatio": "Collecte", "Num_Circu": "CDSM_PC", "Amenagemen": "Pas de Plateforme", "Statut": "actif", "Time": "31/10/2023", "Cod": "Son-57", "fid": 117 }, "geometry": { "type": "Point", "coordinates": [ -4.291690459817157, 5.385692051723677 ] } },
{ "type": "Feature", "properties": { "Commune": "Songon", "Quartier": "Dagbé Village", "Type_Capac": "20m3", "Nom": "Carrefour Jacqueville", "Num_Coffre": 1.0, "X": -4.23134947, "Y": 5.32174749, "Affectatio": "Précollecte", "Num_Circu": "CDSM_500 - AMPLIROLL/Tt - NOUVEAU", "Amenagemen": "Pas Plateforme", "Statut": "actif", "Time": "31/10/2023", "Cod": "Son-4", "fid": 118 }, "geometry": { "type": "Point", "coordinates": [ -4.231349465537759, 5.321747487854504 ] } },
{ "type": "Feature", "properties": { "Commune": "Songon", "Quartier": null, "Type_Capac": "20m3", "Nom": "SAPH TRCI (Songon)", "Num_Coffre": 1.0, "X": -4.1728266, "Y": 5.34465643, "Affectatio": "Précollecte", "Num_Circu": "CDSM_500 - AMPLIROLL/Tt - NOUVEAU", "Amenagemen": "Pas de Plateforme", "Statut": "actif", "Time": "28/11/2023", "Cod": "Son-3", "fid": 119 }, "geometry": { "type": "Point", "coordinates": [ -4.172826603064902, 5.344656433673193 ] } },
{ "type": "Feature", "properties": { "Commune": "Songon", "Quartier": "Abadjin Kouté village", "Type_Capac": "20m3", "Nom": "Abadjin Kouté village", "Num_Coffre": 1.0, "X": -4.15445268, "Y": 5.32422991, "Affectatio": "Précollecte", "Num_Circu": "CDSM_500 - AMPLIROLL/Tt - NOUVEAU", "Amenagemen": "Pas Plateforme", "Statut": "actif", "Time": "28/11/2023", "Cod": "Son-1", "fid": 120 }, "geometry": { "type": "Point", "coordinates": [ -4.154452684477703, 5.324229908765389 ] } },
{ "type": "Feature", "properties": { "Commune": "Attécoubé", "Quartier": "Mosquée", "Type_Capac": "5m3", "Nom": "10ieme Arrondissement", "Num_Coffre": 2.0, "X": -4.03469925, "Y": 5.34760937, "Affectatio": "Collecte", "Num_Circu": "CSDM_109,CSDM_122", "Amenagemen": "Pas de Plateforme", "Statut": "actif", "Time": "10/04/2024", "Cod": "Att-57", "fid": 121 }, "geometry": { "type": "Point", "coordinates": [ -4.034699251542945, 5.347609372984236 ] } },
{ "type": "Feature", "properties": { "Commune": "Songon", "Quartier": "M'bratté", "Type_Capac": "20m3", "Nom": "La poste", "Num_Coffre": 3.0, "X": -4.25289234, "Y": 5.32331712, "Affectatio": "Précollecte", "Num_Circu": "CDSM_500 - AMPLIROLL/Tt - NOUVEAU", "Amenagemen": "Pas Plateforme", "Statut": "actif", "Time": "31/10/2023", "Cod": "Son-9", "fid": 122 }, "geometry": { "type": "Point", "coordinates": [ -4.252892343253792, 5.323317122962226 ] } },
{ "type": "Feature", "properties": { "Commune": "Songon", "Quartier": "Harriste", "Type_Capac": "20m3", "Nom": "Harriste", "Num_Coffre": 1.0, "X": -4.25384373, "Y": 5.31902362, "Affectatio": "Précollecte", "Num_Circu": "CDSM_500 - AMPLIROLL/Tt - NOUVEAU", "Amenagemen": "Pas Plateforme", "Statut": "actif", "Time": "31/10/2023", "Cod": "Son-8", "fid": 123 }, "geometry": { "type": "Point", "coordinates": [ -4.253843725518861, 5.319023624622311 ] } },
{ "type": "Feature", "properties": { "Commune": "Songon", "Quartier": "M'bratté", "Type_Capac": "20m3", "Nom": "M'bratté", "Num_Coffre": 0.0, "X": -4.25793017, "Y": 5.31360676, "Affectatio": "Précollecte", "Num_Circu": "CDSM_500 - AMPLIROLL/Tt - NOUVEAU", "Amenagemen": "Pas Plateforme", "Statut": "supprimé", "Time": "31/10/2023", "Cod": "Son-7", "fid": 124 }, "geometry": { "type": "Point", "coordinates": [ -4.257930168827375, 5.313606763153444 ] } },
{ "type": "Feature", "properties": { "Commune": "Songon", "Quartier": "Agban Village", "Type_Capac": "20m3", "Nom": "Attié 2", "Num_Coffre": 1.0, "X": -4.25080425, "Y": 5.32683783, "Affectatio": "Précollecte", "Num_Circu": "CDSM_500 - AMPLIROLL/Tt - NOUVEAU", "Amenagemen": "Plateforme pour 1 coffre", "Statut": "actif", "Time": "11/11/2023", "Cod": "Son-5", "fid": 125 }, "geometry": { "type": "Point", "coordinates": [ -4.250804254319332, 5.326837828337326 ] } },
{ "type": "Feature", "properties": { "Commune": "Songon", "Quartier": null, "Type_Capac": "20m3", "Nom": "Antenne", "Num_Coffre": 2.0, "X": -4.14117599, "Y": 5.33773718, "Affectatio": "Précollecte", "Num_Circu": "CDSM_500 - AMPLIROLL/Tt - NOUVEAU", "Amenagemen": "Pas Plateforme", "Statut": "actif", "Time": "28/11/2023", "Cod": "Son-13", "fid": 126 }, "geometry": { "type": "Point", "coordinates": [ -4.141175987137573, 5.337737182674099 ] } },
{ "type": "Feature", "properties": { "Commune": "Songon", "Quartier": "Dagbé Village", "Type_Capac": "20m3", "Nom": "Songon Dagbé (Cimétière)", "Num_Coffre": 1.0, "X": -4.22977569, "Y": 5.31704885, "Affectatio": "Précollecte", "Num_Circu": "CDSM_500 - AMPLIROLL/Tt - NOUVEAU", "Amenagemen": "Pas Plateforme", "Statut": "actif", "Time": "31/10/2023", "Cod": "Son-12", "fid": 127 }, "geometry": { "type": "Point", "coordinates": [ -4.229775686789599, 5.317048854679387 ] } },
{ "type": "Feature", "properties": { "Commune": "Songon", "Quartier": "Songon Té", "Type_Capac": "20m3", "Nom": "Songon Té", "Num_Coffre": 1.0, "X": -4.24908556, "Y": 5.30592161, "Affectatio": "Précollecte", "Num_Circu": "CDSM_500 - AMPLIROLL/Tt - NOUVEAU", "Amenagemen": "Plateforme pour 1 coffre", "Statut": "actif", "Time": "31/10/2023", "Cod": "Son-11", "fid": 128 }, "geometry": { "type": "Point", "coordinates": [ -4.249085559431836, 5.305921605070115 ] } },
{ "type": "Feature", "properties": { "Commune": "Songon", "Quartier": "Agban Village", "Type_Capac": "20m3", "Nom": "Marché Agban", "Num_Coffre": 1.0, "X": -4.24892257, "Y": 5.32533937, "Affectatio": "Précollecte", "Num_Circu": "CDSM_500 - AMPLIROLL/Tt - NOUVEAU", "Amenagemen": "Pas Plateforme", "Statut": "actif", "Time": "31/10/2023", "Cod": "Son-10", "fid": 129 }, "geometry": { "type": "Point", "coordinates": [ -4.248922569212238, 5.325339372972938 ] } },
{ "type": "Feature", "properties": { "Commune": "Songon", "Quartier": "Godoumé Village", "Type_Capac": "5m3", "Nom": "Godoumé (1 et 2)", "Num_Coffre": 2.0, "X": -4.18655474, "Y": 5.30711299, "Affectatio": "Collecte", "Num_Circu": "CDSM_PC", "Amenagemen": "Pas de Plateforme", "Statut": "actif", "Time": "28/11/2023", "Cod": "Son-28", "fid": 130 }, "geometry": { "type": "Point", "coordinates": [ -4.18655474035979, 5.307112991462899 ] } },
{ "type": "Feature", "properties": { "Commune": "Songon", "Quartier": "Ayowahi", "Type_Capac": "5m3", "Nom": "SAPH Ayowahi", "Num_Coffre": 1.0, "X": -4.18739956, "Y": 5.35935211, "Affectatio": "Collecte", "Num_Circu": "CDSM_PC", "Amenagemen": "Pas de Plateforme", "Statut": "actif", "Time": "31/10/2023", "Cod": "Son-23", "fid": 131 }, "geometry": { "type": "Point", "coordinates": [ -4.187399562842891, 5.359352113665718 ] } },
{ "type": "Feature", "properties": { "Commune": "Songon", "Quartier": "Abadjin Doumé", "Type_Capac": "5m3", "Nom": "Abadjin Doumé Eglise", "Num_Coffre": 1.0, "X": -4.14818491, "Y": 5.30958415, "Affectatio": "Collecte", "Num_Circu": "CDSM_101", "Amenagemen": "Pas de Plateforme", "Statut": "actif", "Time": "01/12/2023", "Cod": "Son-19", "fid": 132 }, "geometry": { "type": "Point", "coordinates": [ -4.148184913313942, 5.309584146652241 ] } },
{ "type": "Feature", "properties": { "Commune": "Songon", "Quartier": "Institut Pasteur", "Type_Capac": "5m3", "Nom": "Institut Pasteur", "Num_Coffre": 1.0, "X": -4.14614528, "Y": 5.32111365, "Affectatio": "Collecte", "Num_Circu": "CDSM_PC", "Amenagemen": "Pas de Plateforme", "Statut": "actif", "Time": "31/10/2023", "Cod": "Son-16", "fid": 133 }, "geometry": { "type": "Point", "coordinates": [ -4.146145281089363, 5.321113651273902 ] } },
{ "type": "Feature", "properties": { "Commune": "Attécoubé", "Quartier": "Santé III", "Type_Capac": "5m3", "Nom": "Station Shell Mossikro", "Num_Coffre": 1.0, "X": -4.04686596, "Y": 5.34078958, "Affectatio": "Collecte", "Num_Circu": "CDSM_110, CDSM_122", "Amenagemen": "Pas de Plateforme", "Statut": "actif", "Time": "23/01/2024", "Cod": "Att-26", "fid": 134 }, "geometry": { "type": "Point", "coordinates": [ -4.046865959885474, 5.3407895753227 ] } },
{ "type": "Feature", "properties": { "Commune": "Attécoubé", "Quartier": "Santé Village", "Type_Capac": "5m3", "Nom": "Jean Paul II", "Num_Coffre": 1.0, "X": -4.04147093, "Y": 5.33254605, "Affectatio": "Collecte", "Num_Circu": "CDSM_110, CDSM_122", "Amenagemen": "Pas de Plateforme", "Statut": "actif", "Time": "31/10/2023", "Cod": "Att-25", "fid": 135 }, "geometry": { "type": "Point", "coordinates": [ -4.04147093086932, 5.332546046097693 ] } },
{ "type": "Feature", "properties": { "Commune": "Attécoubé", "Quartier": "Santé Village", "Type_Capac": "5m3", "Nom": "Carrefour Santé", "Num_Coffre": 1.0, "X": -4.03889395, "Y": 5.3316459, "Affectatio": "Collecte", "Num_Circu": "CDSM_110, CDSM_122", "Amenagemen": "Pas de Plateforme", "Statut": "actif", "Time": "31/10/2023", "Cod": "Att-24", "fid": 136 }, "geometry": { "type": "Point", "coordinates": [ -4.038893945558472, 5.331645898844665 ] } },
{ "type": "Feature", "properties": { "Commune": "Attécoubé", "Quartier": "Abidjan Agban", "Type_Capac": "20m3", "Nom": "Agban village", "Num_Coffre": 2.0, "X": -4.03180205, "Y": 5.35975455, "Affectatio": "EcoEburnie", "Num_Circu": "CDSM_505 - AMPLIROLL - ATTECOUBE – EEB", "Amenagemen": "Plateforme pour 1 coffre", "Statut": "actif", "Time": "03/04/2024", "Cod": "Att-22", "fid": 137 }, "geometry": { "type": "Point", "coordinates": [ -4.031802051714007, 5.359754549388266 ] } },
{ "type": "Feature", "properties": { "Commune": "Attécoubé", "Quartier": "Gbébouto", "Type_Capac": "20m3", "Nom": "Pharmacie Rehoboth", "Num_Coffre": 2.0, "X": -4.03620039, "Y": 5.35159933, "Affectatio": "Précollecte", "Num_Circu": "CDSM_500 - AMPLIROLL/Tt - NOUVEAU", "Amenagemen": "Plateforme pour 1 coffre", "Statut": "actif", "Time": "04/01/2025", "Cod": "Att-38", "fid": 138 }, "geometry": { "type": "Point", "coordinates": [ -4.036200390476966, 5.351599328287581 ] } },
{ "type": "Feature", "properties": { "Commune": "Attécoubé", "Quartier": "Akélié", "Type_Capac": "20m3", "Nom": "Plantation 2", "Num_Coffre": 1.0, "X": -4.04205976, "Y": 5.32639532, "Affectatio": "EcoEburnie", "Num_Circu": "CDSM_505 - AMPLIROLL - ATTECOUBE – EEB", "Amenagemen": "Pas de Plateforme", "Statut": "actif", "Time": "31/10/2023", "Cod": "Att-37", "fid": 139 }, "geometry": { "type": "Point", "coordinates": [ -4.042059761915167, 5.326395319401265 ] } },
{ "type": "Feature", "properties": { "Commune": "Attécoubé", "Quartier": "Abidjan Agban", "Type_Capac": "5m3", "Nom": "Pharmacie Agban", "Num_Coffre": 0.0, "X": -4.02996745, "Y": 5.35872379, "Affectatio": "Collecte", "Num_Circu": "CDSM_111", "Amenagemen": "Pas de Plateforme", "Statut": "supprimé", "Time": "22/05/2024", "Cod": "Att-36", "fid": 140 }, "geometry": { "type": "Point", "coordinates": [ -4.029967448257809, 5.358723787962258 ] } },
{ "type": "Feature", "properties": { "Commune": "Attécoubé", "Quartier": "Agban Attié", "Type_Capac": "5m3", "Nom": "Banco marché", "Num_Coffre": 0.0, "X": -4.04928344, "Y": 5.35821521, "Affectatio": "Collecte", "Num_Circu": "CDSM_107, CDSM_110, CDSM_122", "Amenagemen": "Pas de Plateforme", "Statut": "supprimé", "Time": "22/05/2024", "Cod": "Att-31", "fid": 141 }, "geometry": { "type": "Point", "coordinates": [ -4.049283443913265, 5.35821520931056 ] } },
{ "type": "Feature", "properties": { "Commune": "Attécoubé", "Quartier": "La Paix", "Type_Capac": "5m3", "Nom": "Carrefour tchapalodrôme", "Num_Coffre": 1.0, "X": -4.03661638, "Y": 5.34514226, "Affectatio": "Collecte", "Num_Circu": "CDSM_109, CDSM_122", "Amenagemen": "Pas de Plateforme", "Statut": "actif", "Time": "13/11/2023", "Cod": "Att-46", "fid": 142 }, "geometry": { "type": "Point", "coordinates": [ -4.036616377506997, 5.345142261160706 ] } },
{ "type": "Feature", "properties": { "Commune": "Attécoubé", "Quartier": "Marine", "Type_Capac": "5m3", "Nom": "Pont Marine", "Num_Coffre": 1.0, "X": -4.0396254, "Y": 5.34694347, "Affectatio": "Collecte", "Num_Circu": "CSDM_109,CSDM_122", "Amenagemen": "Pas de Plateforme", "Statut": "actif", "Time": "22/01/2024", "Cod": "Att-45", "fid": 143 }, "geometry": { "type": "Point", "coordinates": [ -4.039625399699738, 5.346943467000809 ] } },
{ "type": "Feature", "properties": { "Commune": "Attécoubé", "Quartier": "Forêt Classée du Banco", "Type_Capac": "20m3", "Nom": "Nouvelle Marché mangue", "Num_Coffre": 1.0, "X": -4.04305556, "Y": 5.35944444, "Affectatio": "EcoEburnie", "Num_Circu": "CDSM_505 - AMPLIROLL - ATTECOUBE – EEB", "Amenagemen": "Pas de Plateforme", "Statut": "actif", "Time": "04/03/2025", "Cod": "Att-77", "fid": 144 }, "geometry": { "type": "Point", "coordinates": [ -4.043055555555555, 5.359444444444444 ] } },
{ "type": "Feature", "properties": { "Commune": "Attécoubé", "Quartier": "Banco Nord", "Type_Capac": "5m3", "Nom": "Mossikro en bas d'étage", "Num_Coffre": 1.0, "X": -4.05470778, "Y": 5.34173855, "Affectatio": "Collecte", "Num_Circu": "CDSM_110, CDSM_122", "Amenagemen": "Pas de Plateforme", "Statut": "actif", "Time": "17/10/2023", "Cod": "Att-39", "fid": 145 }, "geometry": { "type": "Point", "coordinates": [ -4.054707780142533, 5.341738545591303 ] } },
{ "type": "Feature", "properties": { "Commune": "Attécoubé", "Quartier": "Abobodoumé", "Type_Capac": "5m3", "Nom": "Base Navale", "Num_Coffre": 1.0, "X": -4.03543416, "Y": 5.31441273, "Affectatio": "Collecte", "Num_Circu": "CSDM_110,CSDM_122", "Amenagemen": "Pas de Plateforme", "Statut": "actif", "Time": "08/12/2023", "Cod": "Att-56", "fid": 146 }, "geometry": { "type": "Point", "coordinates": [ -4.035434164739675, 5.314412733117917 ] } },
{ "type": "Feature", "properties": { "Commune": "Attécoubé", "Quartier": "Djéné-Ecaré", "Type_Capac": "20m3", "Nom": "Djené Ecaré", "Num_Coffre": 2.0, "X": -4.04558654, "Y": 5.34856031, "Affectatio": "Précollecte", "Num_Circu": "CDSM_500 - AMPLIROLL/Tt - NOUVEAU", "Amenagemen": "Pas de Plateforme", "Statut": "actif", "Time": "12/12/2023", "Cod": "Att-54", "fid": 147 }, "geometry": { "type": "Point", "coordinates": [ -4.045586544584995, 5.348560307601102 ] } },
{ "type": "Feature", "properties": { "Commune": "Attécoubé", "Quartier": "Saint Joseph", "Type_Capac": "5m3", "Nom": "Résidence du Maire Bvd HKB", "Num_Coffre": 0.0, "X": -4.03462655, "Y": 5.35106742, "Affectatio": "Collecte", "Num_Circu": "CDSM_109", "Amenagemen": "Pas de Plateforme", "Statut": "supprimé", "Time": "22/05/2024", "Cod": "Att-49", "fid": 148 }, "geometry": { "type": "Point", "coordinates": [ -4.034626548848506, 5.351067424013179 ] } },
{ "type": "Feature", "properties": { "Commune": "Attécoubé", "Quartier": "Gbébouto", "Type_Capac": "5m3", "Nom": "Boulangerie Rue Espoir", "Num_Coffre": 0.0, "X": -4.0373782, "Y": 5.34953597, "Affectatio": "Collecte", "Num_Circu": "CDSM_109, CDSM_122", "Amenagemen": "Pas de Plateforme", "Statut": "supprimé", "Time": "25/04/2024", "Cod": "Att-48", "fid": 149 }, "geometry": { "type": "Point", "coordinates": [ -4.037378204005249, 5.349535967225149 ] } },
{ "type": "Feature", "properties": { "Commune": "Attécoubé", "Quartier": "Lackman", "Type_Capac": "20m3", "Nom": "Rue des soeurs", "Num_Coffre": 1.0, "X": -4.03535534, "Y": 5.31692287, "Affectatio": "Précollecte", "Num_Circu": "CDSM_500 - AMPLIROLL/Tt - NOUVEAU", "Amenagemen": "Plateforme pour 1 coffre", "Statut": "actif", "Time": "12/12/2023", "Cod": "Att-7", "fid": 150 }, "geometry": { "type": "Point", "coordinates": [ -4.035355338324661, 5.31692287301725 ] } },
{ "type": "Feature", "properties": { "Commune": "Attécoubé", "Quartier": "Abobodoumé", "Type_Capac": "20m3", "Nom": "Gare lagunaire", "Num_Coffre": 1.0, "X": -4.03576423, "Y": 5.30996381, "Affectatio": "EcoEburnie", "Num_Circu": "CDSM_505 - AMPLIROLL - ATTECOUBE – EEB", "Amenagemen": "Pas de Plateforme", "Statut": "actif", "Time": "12/12/2023", "Cod": "Att-6", "fid": 151 }, "geometry": { "type": "Point", "coordinates": [ -4.035764226548318, 5.309963812597294 ] } },
{ "type": "Feature", "properties": { "Commune": "Attécoubé", "Quartier": "Abobodoumé", "Type_Capac": "20m3", "Nom": "Marché poisson", "Num_Coffre": 1.0, "X": -4.03894503, "Y": 5.30776504, "Affectatio": "Précollecte", "Num_Circu": "CDSM_500 - AMPLIROLL/Tt - NOUVEAU", "Amenagemen": "Plateforme pour 1 coffre", "Statut": "actif", "Time": "12/12/2023", "Cod": "Att-5", "fid": 152 }, "geometry": { "type": "Point", "coordinates": [ -4.038945029653803, 5.307765041790502 ] } },
{ "type": "Feature", "properties": { "Commune": "Attécoubé", "Quartier": "Abobodoumé", "Type_Capac": "20m3", "Nom": "Cimétière Abobo Doumé", "Num_Coffre": 2.0, "X": -4.04194215, "Y": 5.30796803, "Affectatio": "Précollecte", "Num_Circu": "CDSM_500 - AMPLIROLL/Tt - NOUVEAU", "Amenagemen": "Pas de Plateforme", "Statut": "actif", "Time": "12/12/2023", "Cod": "Att-4", "fid": 153 }, "geometry": { "type": "Point", "coordinates": [ -4.04194214651987, 5.307968030982237 ] } },
{ "type": "Feature", "properties": { "Commune": "Attécoubé", "Quartier": "Santé III", "Type_Capac": "20m3", "Nom": "Pinasse (Débarcadère)", "Num_Coffre": 1.0, "X": -4.04284865, "Y": 5.33933925, "Affectatio": "Précollecte", "Num_Circu": "CDSM_500 - AMPLIROLL/Tt - NOUVEAU", "Amenagemen": "Pas de Plateforme", "Statut": "actif", "Time": "31/10/2023", "Cod": "Att-11", "fid": 154 }, "geometry": { "type": "Point", "coordinates": [ -4.042848648407031, 5.339339254246135 ] } },
{ "type": "Feature", "properties": { "Commune": "Attécoubé", "Quartier": "Locodjoro", "Type_Capac": "20m3", "Nom": "Marché de Nuit", "Num_Coffre": 1.0, "X": -4.03708226, "Y": 5.32647427, "Affectatio": "Précollecte", "Num_Circu": "CDSM_500 - AMPLIROLL/Tt - NOUVEAU", "Amenagemen": "Plateforme pour 1 coffre", "Statut": "actif", "Time": "12/12/2023", "Cod": "Att-10", "fid": 155 }, "geometry": { "type": "Point", "coordinates": [ -4.037082261341486, 5.326474274973655 ] } },
{ "type": "Feature", "properties": { "Commune": "Attécoubé", "Quartier": "Lackman", "Type_Capac": "20m3", "Nom": "Lackman", "Num_Coffre": 1.0, "X": -4.03448455, "Y": 5.32071693, "Affectatio": "Précollecte", "Num_Circu": "CDSM_500 - AMPLIROLL/Tt - NOUVEAU", "Amenagemen": "Plateforme pour 1 coffre", "Statut": "actif", "Time": "12/12/2023", "Cod": "Att-9", "fid": 156 }, "geometry": { "type": "Point", "coordinates": [ -4.034484554458688, 5.320716933689397 ] } },
{ "type": "Feature", "properties": { "Commune": "Attécoubé", "Quartier": "Lackman", "Type_Capac": "20m3", "Nom": "Caca sport", "Num_Coffre": 2.0, "X": -4.03958513, "Y": 5.3203357, "Affectatio": "Précollecte", "Num_Circu": "CDSM_500 - AMPLIROLL/Tt - NOUVEAU", "Amenagemen": "Plateforme pour 2 coffres", "Statut": "actif", "Time": "12/12/2023", "Cod": "Att-8", "fid": 157 }, "geometry": { "type": "Point", "coordinates": [ -4.039585133299597, 5.320335695454117 ] } },
{ "type": "Feature", "properties": { "Commune": "Attécoubé", "Quartier": "Bidjan-Té", "Type_Capac": "20m3", "Nom": "Nouvelle gare", "Num_Coffre": 1.0, "X": -4.03342226, "Y": 5.34165716, "Affectatio": "Précollecte", "Num_Circu": "CDSM_500 - AMPLIROLL/Tt - NOUVEAU", "Amenagemen": "Pas de Plateforme", "Statut": "actif", "Time": "12/12/2023", "Cod": "Att-17", "fid": 158 }, "geometry": { "type": "Point", "coordinates": [ -4.033422259448558, 5.341657156630919 ] } },
{ "type": "Feature", "properties": { "Commune": "Attécoubé", "Quartier": "La Paix", "Type_Capac": "20m3", "Nom": "La Paix", "Num_Coffre": 0.0, "X": -4.03738263, "Y": 5.3441234, "Affectatio": "EcoEburnie", "Num_Circu": "CDSM_505 - AMPLIROLL - ATTECOUBE – EEB", "Amenagemen": "Pas de Plateforme", "Statut": "supprimé", "Time": "12/12/2023", "Cod": "Att-16", "fid": 159 }, "geometry": { "type": "Point", "coordinates": [ -4.03738262847375, 5.344123397031817 ] } },
{ "type": "Feature", "properties": { "Commune": "Attécoubé", "Quartier": "Gbébouto", "Type_Capac": "20m3", "Nom": "Banco espoir", "Num_Coffre": 2.0, "X": -4.03935031, "Y": 5.3481026, "Affectatio": "EcoEburnie", "Num_Circu": "CDSM_505 - AMPLIROLL - ATTECOUBE – EEB", "Amenagemen": "Plateforme pour 1 coffre", "Statut": "actif", "Time": "22/01/2024", "Cod": "Att-15", "fid": 160 }, "geometry": { "type": "Point", "coordinates": [ -4.039350309318835, 5.348102604390627 ] } },
{ "type": "Feature", "properties": { "Commune": "Attécoubé", "Quartier": "Santé III", "Type_Capac": "20m3", "Nom": "Safari", "Num_Coffre": 1.0, "X": -4.04857971, "Y": 5.34029279, "Affectatio": "EcoEburnie", "Num_Circu": "CDSM_505 - AMPLIROLL - ATTECOUBE – EEB", "Amenagemen": "Pas de Plateforme", "Statut": "actif", "Time": "13/11/2023", "Cod": "Att-12", "fid": 161 }, "geometry": { "type": "Point", "coordinates": [ -4.048579709227924, 5.340292792802582 ] } },
{ "type": "Feature", "properties": { "Commune": "Attécoubé", "Quartier": "Saint Joseph", "Type_Capac": "20m3", "Nom": "Arrêt 15", "Num_Coffre": 2.0, "X": -4.03252431, "Y": 5.35186784, "Affectatio": "EcoEburnie", "Num_Circu": "CDSM_505 - AMPLIROLL - ATTECOUBE – EEB", "Amenagemen": "Pas de Plateforme", "Statut": "actif", "Time": "12/12/2023", "Cod": "Att-21", "fid": 162 }, "geometry": { "type": "Point", "coordinates": [ -4.032524311019619, 5.351867839833458 ] } },
{ "type": "Feature", "properties": { "Commune": "Attécoubé", "Quartier": "La Paix", "Type_Capac": "20m3", "Nom": "Terminus 04", "Num_Coffre": 1.0, "X": -4.03476589, "Y": 5.34322421, "Affectatio": "EcoEburnie", "Num_Circu": "CDSM_505 - AMPLIROLL - ATTECOUBE – EEB", "Amenagemen": "Pas de Plateforme", "Statut": "actif", "Time": "12/12/2023", "Cod": "Att-20", "fid": 163 }, "geometry": { "type": "Point", "coordinates": [ -4.034765889112755, 5.343224212659842 ] } },
{ "type": "Feature", "properties": { "Commune": "Attécoubé", "Quartier": "Ecoles", "Type_Capac": "20m3", "Nom": "Marché central", "Num_Coffre": 1.0, "X": -4.03343509, "Y": 5.34857831, "Affectatio": "EcoEburnie", "Num_Circu": "CDSM_505 - AMPLIROLL - ATTECOUBE – EEB", "Amenagemen": "Pas de Plateforme", "Statut": "actif", "Time": "16/01/2025", "Cod": "Att-19", "fid": 164 }, "geometry": { "type": "Point", "coordinates": [ -4.03343508869499, 5.348578305945946 ] } },
{ "type": "Feature", "properties": { "Commune": "Attécoubé", "Quartier": "Bidjan-Té", "Type_Capac": "5m3", "Nom": "Hôtel des Jeunes", "Num_Coffre": 2.0, "X": -4.03228003, "Y": 5.34839131, "Affectatio": "Collecte", "Num_Circu": "CSDM_PC", "Amenagemen": "Plateforme pour 1 coffre", "Statut": "actif", "Time": "16/10/2023", "Cod": "Att-18", "fid": 165 }, "geometry": { "type": "Point", "coordinates": [ -4.032280028743318, 5.348391312795443 ] } },
{ "type": "Feature", "properties": { "Commune": "Adjamé", "Quartier": "Mairie 2", "Type_Capac": "5m3", "Nom": "Cuvette SOTRA", "Num_Coffre": 0.0, "X": -4.02840497, "Y": 5.35851928, "Affectatio": "Collecte", "Num_Circu": "CDSM_111, CDSM_112, CDSM_123, CDSM_124", "Amenagemen": "Pas de Plateforme", "Statut": "supprimé", "Time": "09/04/2024", "Cod": "Adj-24", "fid": 166 }, "geometry": { "type": "Point", "coordinates": [ -4.028404966521814, 5.358519283048719 ] } },
{ "type": "Feature", "properties": { "Commune": "Adjamé", "Quartier": "Mirador", "Type_Capac": "20m3", "Nom": "Gbêgba", "Num_Coffre": 2.0, "X": -4.02184805, "Y": 5.35488599, "Affectatio": "Précollecte", "Num_Circu": "CDSM_500 - AMPLIROLL/Tt - NOUVEAU", "Amenagemen": "Pas de Plateforme", "Statut": "actif", "Time": "31/10/2023", "Cod": "Adj-23", "fid": 167 }, "geometry": { "type": "Point", "coordinates": [ -4.021848045075867, 5.354885994738605 ] } },
{ "type": "Feature", "properties": { "Commune": "Adjamé", "Quartier": "Ebrié", "Type_Capac": "20m3", "Nom": "Habitat extension", "Num_Coffre": 2.0, "X": -4.02202366, "Y": 5.35901298, "Affectatio": "Précollecte", "Num_Circu": "CDSM_500 - AMPLIROLL/Tt - NOUVEAU", "Amenagemen": "Plateforme pour 2 coffres", "Statut": "actif", "Time": "29/12/2024", "Cod": "Adj-22", "fid": 168 }, "geometry": { "type": "Point", "coordinates": [ -4.022023660263148, 5.359012980039159 ] } },
{ "type": "Feature", "properties": { "Commune": "Adjamé", "Quartier": "220 Logements", "Type_Capac": "20m3", "Nom": "220 PIT", "Num_Coffre": 2.0, "X": -4.01443738, "Y": 5.35283422, "Affectatio": "Précollecte", "Num_Circu": "CDSM_500 - AMPLIROLL/Tt - NOUVEAU", "Amenagemen": "Plateforme pour 2 coffres", "Statut": "actif", "Time": "31/10/2023", "Cod": "Adj-20", "fid": 169 }, "geometry": { "type": "Point", "coordinates": [ -4.014437380329455, 5.352834217382695 ] } },
{ "type": "Feature", "properties": { "Commune": "Adjamé", "Quartier": "Habitat extension", "Type_Capac": "5m3", "Nom": "Mirador", "Num_Coffre": 0.0, "X": -4.02433541, "Y": 5.35664473, "Affectatio": "Collecte", "Num_Circu": "CDSM_123, CDSM_124", "Amenagemen": "Pas de Plateforme", "Statut": "supprimé", "Time": "22/05/2024", "Cod": "Adj-31", "fid": 170 }, "geometry": { "type": "Point", "coordinates": [ -4.024335405544901, 5.356644728249777 ] } },
{ "type": "Feature", "properties": { "Commune": "Adjamé", "Quartier": "Délégation", "Type_Capac": "5m3", "Nom": "William jacob 2", "Num_Coffre": 2.0, "X": -4.02896046, "Y": 5.35395239, "Affectatio": "Collecte", "Num_Circu": "CDSM_111, CDSM_122", "Amenagemen": "Pas de Plateforme", "Statut": "actif", "Time": "10/01/2025", "Cod": "Adj-28", "fid": 171 }, "geometry": { "type": "Point", "coordinates": [ -4.028960455370867, 5.35395239355076 ] } },
{ "type": "Feature", "properties": { "Commune": "Adjamé", "Quartier": "Délégation", "Type_Capac": "5m3", "Nom": "William jacob 1", "Num_Coffre": 2.0, "X": -4.0277677, "Y": 5.35411359, "Affectatio": "Collecte", "Num_Circu": "CDSM_111_CDSM_122", "Amenagemen": "Pas de Plateforme", "Statut": "actif", "Time": "10/01/2025", "Cod": "Adj-27", "fid": 172 }, "geometry": { "type": "Point", "coordinates": [ -4.027767695617523, 5.354113589350227 ] } },
{ "type": "Feature", "properties": { "Commune": "Adjamé", "Quartier": "Adjamé Nord", "Type_Capac": "5m3", "Nom": "Entrée nouvelle gare - Wrangler", "Num_Coffre": 0.0, "X": -4.02969421, "Y": 5.36315543, "Affectatio": "Collecte", "Num_Circu": "CDSM_111, CDSM_112", "Amenagemen": "Pas de Plateforme", "Statut": "supprimé", "Time": "07/12/2023", "Cod": "Adj-25", "fid": 173 }, "geometry": { "type": "Point", "coordinates": [ -4.029694211532663, 5.363155430271209 ] } },
{ "type": "Feature", "properties": { "Commune": "Adjamé", "Quartier": "Williamsville 1", "Type_Capac": "5m3", "Nom": "Terminus 14", "Num_Coffre": 1.0, "X": -4.02379993, "Y": 5.36728265, "Affectatio": "Collecte", "Num_Circu": "CDSM_111, CDSM_123", "Amenagemen": "Pas de Plateforme", "Statut": "actif", "Time": "17/05/2024", "Cod": "Adj-35", "fid": 174 }, "geometry": { "type": "Point", "coordinates": [ -4.023799929585593, 5.367282651871641 ] } },
{ "type": "Feature", "properties": { "Commune": "Adjamé", "Quartier": "Williamsville 2", "Type_Capac": "4m3", "Nom": "CRS", "Num_Coffre": 1.0, "X": -4.02602117, "Y": 5.36906804, "Affectatio": "Collecte", "Num_Circu": "CDSM_111, CDSM_123", "Amenagemen": "Pas de Plateforme", "Statut": "actif", "Time": "17/05/2024", "Cod": "Adj-34", "fid": 175 }, "geometry": { "type": "Point", "coordinates": [ -4.026021168429446, 5.369068043951858 ] } },
{ "type": "Feature", "properties": { "Commune": "Adjamé", "Quartier": "Ebrié", "Type_Capac": "5m3", "Nom": "Arret Carine couture", "Num_Coffre": 1.0, "X": -4.01607288, "Y": 5.35736763, "Affectatio": "Collecte", "Num_Circu": "CDSM_111, CDSM_123", "Amenagemen": "Pas de Plateforme", "Statut": "actif", "Time": "31/10/2023", "Cod": "Adj-33", "fid": 176 }, "geometry": { "type": "Point", "coordinates": [ -4.016072876941554, 5.357367632684225 ] } },
{ "type": "Feature", "properties": { "Commune": "Adjamé", "Quartier": "Ebrié", "Type_Capac": "5m3", "Nom": "Eglise methodiste", "Num_Coffre": 1.0, "X": -4.01704249, "Y": 5.3554159, "Affectatio": "Collecte", "Num_Circu": "CDSM_111", "Amenagemen": "Pas de Plateforme", "Statut": "actif", "Time": "08/12/2023", "Cod": "Adj-32", "fid": 177 }, "geometry": { "type": "Point", "coordinates": [ -4.017042491802929, 5.355415896430344 ] } },
{ "type": "Feature", "properties": { "Commune": "Attécoubé", "Quartier": "Jérusalem Résidentiel", "Type_Capac": "20m3", "Nom": "Nadia", "Num_Coffre": 1.0, "X": -4.04391616, "Y": 5.31203497, "Affectatio": "Précollecte", "Num_Circu": "CDSM_500 - AMPLIROLL/Tt - NOUVEAU", "Amenagemen": "Plateforme pour 1 coffre", "Statut": "actif", "Time": "12/12/2023", "Cod": "Att-3", "fid": 178 }, "geometry": { "type": "Point", "coordinates": [ -4.043916157777369, 5.312034971164155 ] } },
{ "type": "Feature", "properties": { "Commune": "Attécoubé", "Quartier": "Jean Paul 2", "Type_Capac": "20m3", "Nom": "Marché Locodjoro", "Num_Coffre": 2.0, "X": -4.04217013, "Y": 5.32923618, "Affectatio": "Précollecte", "Num_Circu": "CDSM_500 - AMPLIROLL/Tt - NOUVEAU", "Amenagemen": "Plateforme pour 2 coffres", "Statut": "actif", "Time": "12/12/2023", "Cod": "Att-1", "fid": 179 }, "geometry": { "type": "Point", "coordinates": [ -4.042170129951462, 5.329236182749599 ] } },
{ "type": "Feature", "properties": { "Commune": "Adjamé", "Quartier": "Pailliet", "Type_Capac": "20m3", "Nom": "Université Nagui Abrogoua", "Num_Coffre": 1.0, "X": -4.01908396, "Y": 5.39458141, "Affectatio": "Précollecte", "Num_Circu": "CDSM_500 - AMPLIROLL/Tt - NOUVEAU", "Amenagemen": "Pas de Plateforme", "Statut": "actif", "Time": "31/01/2023", "Cod": "Adj-37", "fid": 180 }, "geometry": { "type": "Point", "coordinates": [ -4.019083964419267, 5.39458140915908 ] } },
{ "type": "Feature", "properties": { "Commune": "Adjamé", "Quartier": "Williamsville 1", "Type_Capac": "5m3", "Nom": "Williamsville mosquée", "Num_Coffre": 2.0, "X": -4.02039467, "Y": 5.36549651, "Affectatio": "Collecte", "Num_Circu": "CDSM_111, CDSM_123", "Amenagemen": "Pas de Plateforme", "Statut": "actif", "Time": "15/01/2025", "Cod": "Adj-36", "fid": 181 }, "geometry": { "type": "Point", "coordinates": [ -4.020394672400901, 5.36549651324167 ] } },
{ "type": "Feature", "properties": { "Commune": "Adjamé", "Quartier": "Sodeci - Filtisac", "Type_Capac": "20m3", "Nom": "Nouveau marché mouton", "Num_Coffre": 3.0, "X": -4.03048626, "Y": 5.36781321, "Affectatio": "Précollecte", "Num_Circu": "CDSM_500 - AMPLIROLL/Tt - NOUVEAU", "Amenagemen": "Pas de Plateforme", "Statut": "actif", "Time": "31/10/2023", "Cod": "Adj-5", "fid": 182 }, "geometry": { "type": "Point", "coordinates": [ -4.030486261870083, 5.36781321277495 ] } },
{ "type": "Feature", "properties": { "Commune": "Adjamé", "Quartier": "Adjamé Nord", "Type_Capac": "20m3", "Nom": "Bracodi", "Num_Coffre": 2.0, "X": -4.02880803, "Y": 5.36296885, "Affectatio": "Précollecte", "Num_Circu": "CDSM_500 - AMPLIROLL/Tt - NOUVEAU", "Amenagemen": "Pas de Plateforme", "Statut": "actif", "Time": "31/10/2023", "Cod": "Adj-4", "fid": 183 }, "geometry": { "type": "Point", "coordinates": [ -4.028808026275723, 5.362968854319493 ] } },
{ "type": "Feature", "properties": { "Commune": "Adjamé", "Quartier": "Adjamé Nord", "Type_Capac": "20m3", "Nom": "Hôtel patient", "Num_Coffre": 0.0, "X": -4.02742792, "Y": 5.35978271, "Affectatio": "Précollecte", "Num_Circu": "CDSM_500 - AMPLIROLL/Tt - NOUVEAU", "Amenagemen": "Plateforme pour 2 coffres", "Statut": "supprimé", "Time": "08/04/2024", "Cod": "Adj-3", "fid": 184 }, "geometry": { "type": "Point", "coordinates": [ -4.027427920444175, 5.359782712936095 ] } },
{ "type": "Feature", "properties": { "Commune": "Adjamé", "Quartier": "Délégation", "Type_Capac": "20m3", "Nom": "Sodeci château", "Num_Coffre": 1.0, "X": -4.0326869, "Y": 5.35356985, "Affectatio": "Précollecte", "Num_Circu": "CDSM_500 - AMPLIROLL/Tt - NOUVEAU", "Amenagemen": "Pas de Plateforme", "Statut": "actif", "Time": "22/01/2024", "Cod": "Adj-1", "fid": 185 }, "geometry": { "type": "Point", "coordinates": [ -4.032686898081813, 5.353569847964205 ] } },
{ "type": "Feature", "properties": { "Commune": "Adjamé", "Quartier": "Pailliet", "Type_Capac": "20m3", "Nom": "HMA", "Num_Coffre": 1.0, "X": -4.00891823, "Y": 5.38041741, "Affectatio": "Précollecte", "Num_Circu": "CDSM_500 - AMPLIROLL/Tt - NOUVEAU", "Amenagemen": "Pas de Plateforme", "Statut": "actif", "Time": "31/10/2023", "Cod": "Adj-10", "fid": 186 }, "geometry": { "type": "Point", "coordinates": [ -4.008918230206768, 5.380417414466693 ] } },
{ "type": "Feature", "properties": { "Commune": "Adjamé", "Quartier": "Sodeci - Filtisac", "Type_Capac": "20m3", "Nom": "Marché Kady sylla", "Num_Coffre": 3.0, "X": -4.02640869, "Y": 5.37952712, "Affectatio": "Précollecte", "Num_Circu": "CDSM_500 - AMPLIROLL/Tt - NOUVEAU", "Amenagemen": "Plateforme pour 4 coffres", "Statut": "actif", "Time": "31/10/2023", "Cod": "Adj-9", "fid": 187 }, "geometry": { "type": "Point", "coordinates": [ -4.02640869051528, 5.379527124650951 ] } },
{ "type": "Feature", "properties": { "Commune": "Adjamé", "Quartier": "Pailliet", "Type_Capac": "20m3", "Nom": "Sonitra", "Num_Coffre": 2.0, "X": -4.02047973, "Y": 5.38135695, "Affectatio": "Précollecte", "Num_Circu": "CDSM_500 - AMPLIROLL/Tt - NOUVEAU", "Amenagemen": "Plateforme pour 2 coffres", "Statut": "actif", "Time": "03/04/2024", "Cod": "Adj-8", "fid": 188 }, "geometry": { "type": "Point", "coordinates": [ -4.020479729198039, 5.381356950270445 ] } },
{ "type": "Feature", "properties": { "Commune": "Adjamé", "Quartier": "Pailliet", "Type_Capac": "20m3", "Nom": "Garage cissé", "Num_Coffre": 2.0, "X": -4.02449959, "Y": 5.37931778, "Affectatio": "Précollecte", "Num_Circu": "CDSM_500 - AMPLIROLL/Tt - NOUVEAU", "Amenagemen": "Pas de Plateforme", "Statut": "actif", "Time": "12/12/2023", "Cod": "Adj-7", "fid": 189 }, "geometry": { "type": "Point", "coordinates": [ -4.024499593179358, 5.379317776056053 ] } },
{ "type": "Feature", "properties": { "Commune": "Adjamé", "Quartier": "Williamsville 1", "Type_Capac": "20m3", "Nom": "Ancien marché mouton", "Num_Coffre": 2.0, "X": -4.02749413, "Y": 5.36591426, "Affectatio": "Précollecte", "Num_Circu": "CDSM_500 - AMPLIROLL/Tt - NOUVEAU", "Amenagemen": "Pas de Plateforme", "Statut": "actif", "Time": "03/04/2024", "Cod": "Adj-14", "fid": 190 }, "geometry": { "type": "Point", "coordinates": [ -4.027494127157049, 5.365914262357872 ] } },
{ "type": "Feature", "properties": { "Commune": "Adjamé", "Quartier": "Williamsville 1", "Type_Capac": "20m3", "Nom": "Quai agban tracteur", "Num_Coffre": 5.0, "X": -4.01830958, "Y": 5.36143964, "Affectatio": "Précollecte", "Num_Circu": "CDSM_500 - AMPLIROLL/Tt - NOUVEAU", "Amenagemen": "Plateforme pour 8 coffres + Clôture", "Statut": "actif", "Time": "31/10/2023", "Cod": "Adj-13", "fid": 191 }, "geometry": { "type": "Point", "coordinates": [ -4.018309577412267, 5.361439641900282 ] } },
{ "type": "Feature", "properties": { "Commune": "Adjamé", "Quartier": "Williamsville 2", "Type_Capac": "20m3", "Nom": "Cimétière williamsville", "Num_Coffre": 1.0, "X": -4.01514559, "Y": 5.36800442, "Affectatio": "Précollecte", "Num_Circu": "CDSM_500 - AMPLIROLL/Tt - NOUVEAU", "Amenagemen": "Pas de Plateforme", "Statut": "actif", "Time": "31/10/2023", "Cod": "Adj-12", "fid": 192 }, "geometry": { "type": "Point", "coordinates": [ -4.015145585778768, 5.368004418047598 ] } },
{ "type": "Feature", "properties": { "Commune": "Adjamé", "Quartier": "Pailliet", "Type_Capac": "20m3", "Nom": "Paillet Cocoteraie", "Num_Coffre": 1.0, "X": -4.01374573, "Y": 5.37939093, "Affectatio": "Précollecte", "Num_Circu": "CDSM_500 - AMPLIROLL/Tt - NOUVEAU", "Amenagemen": "Pas de Plateforme", "Statut": "actif", "Time": "08/12/2023", "Cod": "Adj-11", "fid": 193 }, "geometry": { "type": "Point", "coordinates": [ -4.013745734345028, 5.379390925746547 ] } },
{ "type": "Feature", "properties": { "Commune": "Adjamé", "Quartier": "Mirador", "Type_Capac": "20m3", "Nom": "Quai marché gouro", "Num_Coffre": 10.0, "X": -4.02333279, "Y": 5.35013303, "Affectatio": "Précollecte", "Num_Circu": "CDSM_500 - AMPLIROLL/Tt - NOUVEAU", "Amenagemen": "Plateforme pour 12 coffres + Clôture ouvert devant", "Statut": "actif", "Time": "31/10/2023", "Cod": "Adj-19", "fid": 194 }, "geometry": { "type": "Point", "coordinates": [ -4.023332788257346, 5.350133031468548 ] } },
{ "type": "Feature", "properties": { "Commune": "Adjamé", "Quartier": "Mirador", "Type_Capac": "20m3", "Nom": "Marché rosalie", "Num_Coffre": 1.0, "X": -4.02382942, "Y": 5.34976407, "Affectatio": "Précollecte", "Num_Circu": "CDSM_500 - AMPLIROLL/Tt - NOUVEAU", "Amenagemen": "Plateforme pour 1 coffre", "Statut": "actif", "Time": "31/10/2023", "Cod": "Adj-18", "fid": 195 }, "geometry": { "type": "Point", "coordinates": [ -4.023829418328243, 5.349764066843306 ] } },
{ "type": "Feature", "properties": { "Commune": "Adjamé", "Quartier": "Mirador", "Type_Capac": "20m3", "Nom": "Marché madeleine", "Num_Coffre": 2.0, "X": -4.02319834, "Y": 5.34959869, "Affectatio": "Précollecte", "Num_Circu": "CDSM_500 - AMPLIROLL/Tt - NOUVEAU", "Amenagemen": "Plateforme pour 2 coffres", "Statut": "actif", "Time": "31/10/2023", "Cod": "Adj-17", "fid": 196 }, "geometry": { "type": "Point", "coordinates": [ -4.023198339626517, 5.349598690664753 ] } },
{ "type": "Feature", "properties": { "Commune": "Adjamé", "Quartier": "Mairie 1", "Type_Capac": "20m3", "Nom": "Marché feuille", "Num_Coffre": 1.0, "X": -4.02959518, "Y": 5.34063335, "Affectatio": "Précollecte", "Num_Circu": "CDSM_500 - AMPLIROLL/Tt - NOUVEAU", "Amenagemen": "Plateforme pour 2 coffres", "Statut": "actif", "Time": "31/10/2023", "Cod": "Adj-16", "fid": 197 }, "geometry": { "type": "Point", "coordinates": [ -4.029595177055098, 5.340633351561667 ] } },
{ "type": "Feature", "properties": { "Commune": "Yopougon", "Quartier": "Zone Industrielle", "Type_Capac": "20m3", "Nom": "AJPS", "Num_Coffre": 0.0, "X": -4.08184872, "Y": 5.36635412, "Affectatio": "Précollecte", "Num_Circu": "CDSM_500 - AMPLIROLL/Tt - NOUVEAU", "Amenagemen": "Pas de Plateforme", "Statut": "supprimé", "Time": "18/09/2023", "Cod": "Yop-52", "fid": 198 }, "geometry": { "type": "Point", "coordinates": [ -4.0818487184926, 5.366354124835691 ] } },
{ "type": "Feature", "properties": { "Commune": "Yopougon", "Quartier": "Yaosséhi", "Type_Capac": "20m3", "Nom": "Schekina", "Num_Coffre": 0.0, "X": -4.07947822, "Y": 5.33250312, "Affectatio": "Précollecte", "Num_Circu": "CDSM_500 - AMPLIROLL/Tt - NOUVEAU", "Amenagemen": "Plateforme pour 1 coffre", "Statut": "supprimé", "Time": "18/09/2023", "Cod": "Yop-44", "fid": 199 }, "geometry": { "type": "Point", "coordinates": [ -4.079478223650532, 5.332503121583675 ] } },
{ "type": "Feature", "properties": { "Commune": "Yopougon", "Quartier": "Gesco Attié", "Type_Capac": "20m3", "Nom": "Batim", "Num_Coffre": 1.0, "X": -4.09417288, "Y": 5.36556247, "Affectatio": "Précollecte", "Num_Circu": "CDSM_500 - AMPLIROLL/Tt - NOUVEAU", "Amenagemen": "Plateforme pour 1 coffre", "Statut": "actif", "Time": "15/02/2024", "Cod": "Yop-69", "fid": 200 }, "geometry": { "type": "Point", "coordinates": [ -4.094172881609189, 5.365562465442292 ] } },
{ "type": "Feature", "properties": { "Commune": "Yopougon", "Quartier": "Zone Industrielle", "Type_Capac": "20m3", "Nom": "Micao Extension", "Num_Coffre": 0.0, "X": -4.10206535, "Y": 5.3879922, "Affectatio": "Précollecte", "Num_Circu": "CDSM_500 - AMPLIROLL/Tt - NOUVEAU", "Amenagemen": "Pas de Plateforme", "Statut": "supprimé", "Time": "18/09/2023", "Cod": "Yop-63", "fid": 201 }, "geometry": { "type": "Point", "coordinates": [ -4.102065347130197, 5.38799220455671 ] } },
{ "type": "Feature", "properties": { "Commune": "Yopougon", "Quartier": "Gesco Attié", "Type_Capac": "20m3", "Nom": "Manutention", "Num_Coffre": 0.0, "X": -4.10293436, "Y": 5.35936184, "Affectatio": "Précollecte", "Num_Circu": "CDSM_500 - AMPLIROLL/Tt - NOUVEAU", "Amenagemen": "Plateforme pour 1 coffre", "Statut": "supprimé", "Time": "03/02/2023", "Cod": "Yop-72", "fid": 202 }, "geometry": { "type": "Point", "coordinates": [ -4.102934362345916, 5.359361842509729 ] } },
{ "type": "Feature", "properties": { "Commune": "Yopougon", "Quartier": "Gesco Attié", "Type_Capac": "20m3", "Nom": "Marche Bédié", "Num_Coffre": 0.0, "X": -4.10077985, "Y": 5.36165046, "Affectatio": "Précollecte", "Num_Circu": "CDSM_500 - AMPLIROLL/Tt - NOUVEAU", "Amenagemen": "Pas de Plateforme", "Statut": "supprimé", "Time": "18/09/2023", "Cod": "Yop-71", "fid": 203 }, "geometry": { "type": "Point", "coordinates": [ -4.100779850711465, 5.361650455800921 ] } },
{ "type": "Feature", "properties": { "Commune": "Yopougon", "Quartier": "Yopougon Kouté", "Type_Capac": "5m3", "Nom": "Nouveau marché Camp Millitaire", "Num_Coffre": 1.0, "X": -4.06261518, "Y": 5.32600118, "Affectatio": "Collecte", "Num_Circu": "CDSM_102", "Amenagemen": "Pas de Plateforme", "Statut": "actif", "Time": "12/12/2023", "Cod": "Yop-238", "fid": 204 }, "geometry": { "type": "Point", "coordinates": [ -4.062615183731618, 5.326001184569972 ] } },
{ "type": "Feature", "properties": { "Commune": "Yopougon", "Quartier": "Cimetière", "Type_Capac": "20m3", "Nom": "Cimetière Bonikro (Entrée Cimetière)", "Num_Coffre": 2.0, "X": -4.10558621, "Y": 5.34815263, "Affectatio": "Précollecte", "Num_Circu": "CDSM_500 - AMPLIROLL/Tt - NOUVEAU", "Amenagemen": "Pas de Plateforme", "Statut": "actif", "Time": "12/12/2023", "Cod": "Yop-221", "fid": 205 }, "geometry": { "type": "Point", "coordinates": [ -4.105586211975258, 5.34815262679949 ] } },
{ "type": "Feature", "properties": { "Commune": "Yopougon", "Quartier": "Yopougon Kouté", "Type_Capac": "5m3", "Nom": "Antenne CitelCom (Saguidiba)", "Num_Coffre": 1.0, "X": -4.07332375, "Y": 5.33379016, "Affectatio": "Collecte", "Num_Circu": "CDSM_103", "Amenagemen": "Pas de Plateforme", "Statut": "actif", "Time": "17/05/2024", "Cod": "Yop-237", "fid": 206 }, "geometry": { "type": "Point", "coordinates": [ -4.073323753795242, 5.333790164521365 ] } },
{ "type": "Feature", "properties": { "Commune": "Kossihouen", "Quartier": null, "Type_Capac": "12m3", "Nom": "Marché Kossihouen", "Num_Coffre": 1.0, "X": -4.29072485, "Y": 5.52208914, "Affectatio": "EcoEburnie", "Num_Circu": null, "Amenagemen": null, "Statut": "actif", "Time": "31/10/2023", "Cod": null, "fid": 207 }, "geometry": { "type": "Point", "coordinates": [ -4.290724848076295, 5.522089135153234 ] } },
{ "type": "Feature", "properties": { "Commune": "Yopougon", "Quartier": "Zone Industrielle", "Type_Capac": "4m3", "Nom": "Vakabadougou", "Num_Coffre": 1.0, "X": -4.08892159, "Y": 5.40790807, "Affectatio": "Collecte", "Num_Circu": "CDSM_PC", "Amenagemen": "Pas de Aménagement", "Statut": "actif", "Time": "26/03/2024", "Cod": "Yop-267", "fid": 208 }, "geometry": { "type": "Point", "coordinates": [ -4.088921589061369, 5.407908065785985 ] } },
{ "type": "Feature", "properties": { "Commune": "Attécoubé", "Quartier": "Lackman", "Type_Capac": "20m3", "Nom": "Cité Addoha", "Num_Coffre": 1.0, "X": -4.03497031, "Y": 5.32137658, "Affectatio": "EcoEburnie", "Num_Circu": "CDSM_505 - AMPLIROLL - ATTECOUBE – EEB", "Amenagemen": "Plateforme pour 1 coffre", "Statut": "actif", "Time": "03/04/2024", "Cod": "Att-61", "fid": 209 }, "geometry": { "type": "Point", "coordinates": [ -4.0349703131261, 5.321376581808034 ] } },
{ "type": "Feature", "properties": { "Commune": "Attécoubé", "Quartier": "Bidjan-Té", "Type_Capac": "20m3", "Nom": "Hôtel des jeunes (Sylla et Frère)", "Num_Coffre": 3.0, "X": -4.0310307, "Y": 5.34780193, "Affectatio": "Précollecte", "Num_Circu": "CDSM_500 - AMPLIROLL/Tt - NOUVEAU", "Amenagemen": "Bitime", "Statut": "actif", "Time": "08/12/2023", "Cod": "Att-60", "fid": 210 }, "geometry": { "type": "Point", "coordinates": [ -4.031030704219456, 5.347801934513938 ] } },
{ "type": "Feature", "properties": { "Commune": "Yopougon", "Quartier": "Zone Industrielle", "Type_Capac": "20m3", "Nom": "Gesco Terre Rouge", "Num_Coffre": 1.0, "X": -4.11787965, "Y": 5.37276184, "Affectatio": "Précollecte", "Num_Circu": "CDSM_500 - AMPLIROLL/Tt - NOUVEAU", "Amenagemen": "Pas de Plateforme", "Statut": "actif", "Time": "20/12/2023", "Cod": "Yop-222", "fid": 211 }, "geometry": { "type": "Point", "coordinates": [ -4.117879650473186, 5.372761840000445 ] } },
{ "type": "Feature", "properties": { "Commune": "Yopougon", "Quartier": "Niangon Sud Ouest", "Type_Capac": "4m3", "Nom": "Pont Académie", "Num_Coffre": 1.0, "X": -4.10789643, "Y": 5.32397642, "Affectatio": "Collecte", "Num_Circu": "CDSM_108", "Amenagemen": "Pas de Plateforme", "Statut": "actif", "Time": "14/12/2023", "Cod": "Yop-230", "fid": 212 }, "geometry": { "type": "Point", "coordinates": [ -4.107896425823562, 5.323976419524554 ] } },
{ "type": "Feature", "properties": { "Commune": "Yopougon", "Quartier": "Yopougon Kouté", "Type_Capac": "4m3", "Nom": "Carrefour Mandjo", "Num_Coffre": 1.0, "X": -4.08293273, "Y": 5.32406919, "Affectatio": "Collecte", "Num_Circu": "CDSM_105", "Amenagemen": "Pas de Plateforme", "Statut": "actif", "Time": "12/10/2023", "Cod": "Yop-96", "fid": 213 }, "geometry": { "type": "Point", "coordinates": [ -4.082932732277037, 5.324069191024528 ] } },
{ "type": "Feature", "properties": { "Commune": "Yopougon", "Quartier": "Yopougon Kouté", "Type_Capac": "4m3", "Nom": "Rond Point Petit Toit Rouge", "Num_Coffre": 1.0, "X": -4.06543159, "Y": 5.32383015, "Affectatio": "Collecte", "Num_Circu": "CDSM_105", "Amenagemen": "Pas de Plateforme", "Statut": "actif", "Time": "06/12/2023", "Cod": "Yop-232", "fid": 214 }, "geometry": { "type": "Point", "coordinates": [ -4.065431591746325, 5.323830147918902 ] } },
{ "type": "Feature", "properties": { "Commune": "Yopougon", "Quartier": "Yopougon Attié", "Type_Capac": "5m3", "Nom": "MTN Sable", "Num_Coffre": 1.0, "X": -4.06439616, "Y": 5.35375658, "Affectatio": "Collecte", "Num_Circu": "CDSM_102", "Amenagemen": "Pas de Plateforme", "Statut": "actif", "Time": "08/12/2023", "Cod": "Yop-231", "fid": 215 }, "geometry": { "type": "Point", "coordinates": [ -4.064396163448691, 5.353756584227084 ] } },
{ "type": "Feature", "properties": { "Commune": "Attécoubé", "Quartier": "Santé III", "Type_Capac": "5m3", "Nom": "Boulangerie", "Num_Coffre": 1.0, "X": -4.05036714, "Y": 5.34023619, "Affectatio": "Collecte", "Num_Circu": "CDSM_110", "Amenagemen": "Pas de Plateforme", "Statut": "actif", "Time": "13/11/2023", "Cod": "Att-59", "fid": 216 }, "geometry": { "type": "Point", "coordinates": [ -4.050367142773613, 5.34023618717022 ] } },
{ "type": "Feature", "properties": { "Commune": "Yopougon", "Quartier": "Yopougon Attié", "Type_Capac": "5m3", "Nom": "Terminus 47", "Num_Coffre": 1.0, "X": -4.0835075, "Y": 5.33962709, "Affectatio": "Collecte", "Num_Circu": "CDSM_103", "Amenagemen": "Pas de Plateforme", "Statut": "actif", "Time": "06/12/2023", "Cod": "Yop-229", "fid": 217 }, "geometry": { "type": "Point", "coordinates": [ -4.083507498961523, 5.339627091453218 ] } },
{ "type": "Feature", "properties": { "Commune": "Yopougon", "Quartier": "Yopougon Hopital", "Type_Capac": "5m3", "Nom": "Morgue", "Num_Coffre": 1.0, "X": -4.09174003, "Y": 5.3565794, "Affectatio": "Collecte", "Num_Circu": "CDSM_106", "Amenagemen": "Pas de Plateforme", "Statut": "actif", "Time": "14/12/2023", "Cod": "Yop-227", "fid": 218 }, "geometry": { "type": "Point", "coordinates": [ -4.091740027070046, 5.356579399667675 ] } },