{
"type": "FeatureCollection",
"name": "sitecoffres2",
"crs": { "type": "name", "properties": { "name": "urn:ogc:def:crs:OGC:1.3:CRS84" } },
"features": [
{ "type": "Feature", "properties": { "fid": 1601.0, "Cod": "Yop-286", "Commune": "Yopougon", "Type_Capac": "20m3", "Nom": "Dakouri Palmier", "Num_Coffre": 1.0, "X": 376143.08118046762, "Y": 593982.20955490018, "Affectatio": "Précollecte", "Num_Circu": "CDSM_500 - AMPLIROLL/Tt - NOUVEAU", "Amenagemen": "Pas de Plateforme", "Statut": "actif", "Time": "21/05/2024", "Quartier": "Gesco Attié" }, "geometry": { "type": "Point", "coordinates": [ -4.106028, 5.374028 ] } },
{ "type": "Feature", "properties": { "fid": 1602.0, "Cod": "Yop-285", "Commune": "Yopougon", "Type_Capac": "20m3", "Nom": "Dakouri Gare", "Num_Coffre": 1.0, "X": 376143.08118046762, "Y": 593982.20955490018, "Affectatio": "Précollecte", "Num_Circu": "CDSM_500 - AMPLIROLL/Tt - NOUVEAU", "Amenagemen": "Pas de Plateforme", "Statut": "actif", "Time": "21/05/2024", "Quartier": "Zone Industrielle" }, "geometry": { "type": "Point", "coordinates": [ -4.114, 5.372806 ] } },
{ "type": "Feature", "properties": { "fid": 1603.0, "Cod": "Yop-284", "Commune": "Yopougon", "Type_Capac": "5m3", "Nom": "Entrée Station Shell", "Num_Coffre": 1.0, "X": 378140.33335784823, "Y": 592781.3872246989, "Affectatio": "Collecte", "Num_Circu": "CDSM_107", "Amenagemen": "Pas de plateforme", "Statut": "actif", "Time": "27/04/2024", "Quartier": "Gesco Attié" }, "geometry": { "type": "Point", "coordinates": [ -4.101397909173231, 5.36738644762073 ] } },
{ "type": "Feature", "properties": { "fid": 1604.0, "Cod": "Yop-158", "Commune": "Yopougon", "Type_Capac": "20m3", "Nom": "Gesco Judée", "Num_Coffre": 2.0, "X": 377758.48843987845, "Y": 593439.63765927323, "Affectatio": "Précollecte", "Num_Circu": "CDSM_500 - AMPLIROLL/Tt - NOUVEAU", "Amenagemen": "Pas de plateforme", "Statut": "actif", "Time": "17/05/2024", "Quartier": "Gesco Attié" }, "geometry": { "type": "Point", "coordinates": [ -4.104175044225082, 5.36890227490261 ] } },
{ "type": "Feature", "properties": { "fid": 1605.0, "Cod": "Yop-290", "Commune": "Yopougon", "Type_Capac": "5m3", "Nom": "Sogefiha 5", "Num_Coffre": 1.0, "X": 382257.95183878054, "Y": 588801.50923228625, "Affectatio": "Collecte", "Num_Circu": "CDSM_102", "Amenagemen": "Pas de Plateforme", "Statut": "actif", "Time": "05/06/2024", "Quartier": "Yopougon Kouté" }, "geometry": { "type": "Point", "coordinates": [ -4.0654, 5.3265 ] } },
{ "type": "Feature", "properties": { "fid": 1606.0, "Cod": "Yop-289", "Commune": "Yopougon", "Type_Capac": "5m3", "Nom": "Micao Forage", "Num_Coffre": 1.0, "X": 377743.2, "Y": 593455.5, "Affectatio": "Collecte", "Num_Circu": "CDSM_PC", "Amenagemen": "Pas de Plateforme", "Statut": "actif", "Time": "05/06/2024", "Quartier": "Gesco Attié" }, "geometry": { "type": "Point", "coordinates": [ -4.1104749, 5.372455 ] } },
{ "type": "Feature", "properties": { "fid": 1607.0, "Cod": "Yop-288", "Commune": "Yopougon", "Type_Capac": "5m3", "Nom": "Micao Carrefour Sodeci", "Num_Coffre": 1.0, "X": 376143.08118046762, "Y": 593982.20955490018, "Affectatio": "Collecte", "Num_Circu": "CDSM_PC", "Amenagemen": "Pas de Plateforme", "Statut": "actif", "Time": "21/05/2024", "Quartier": "Gesco Attié" }, "geometry": { "type": "Point", "coordinates": [ -4.102305555555556, 5.378639 ] } },
{ "type": "Feature", "properties": { "fid": 1608.0, "Cod": "Yop-287", "Commune": "Yopougon", "Type_Capac": "5m3", "Nom": "Dakouri", "Num_Coffre": 1.0, "X": 376143.08118046762, "Y": 593982.20955490018, "Affectatio": "Collecte", "Num_Circu": "CDSM_PC", "Amenagemen": "Pas de Plateforme", "Statut": "actif", "Time": "21/05/2024", "Quartier": "Gesco Attié" }, "geometry": { "type": "Point", "coordinates": [ -4.106027777777778, 5.373583 ] } },
{ "type": "Feature", "properties": { "fid": 1609.0, "Cod": "Att-64", "Commune": "Attécoubé", "Type_Capac": "20m3", "Nom": "Sibéton 1", "Num_Coffre": 1.0, "X": 382283.00000000006, "Y": 592338.3, "Affectatio": "Précollecte", "Num_Circu": "CDSM_500 - AMPLIROLL/Tt - NOUVEAU", "Amenagemen": "Plateforme pour 1 coffre", "Statut": "actif", "Time": "08/07/2024", "Quartier": "Agban Attié" }, "geometry": { "type": "Point", "coordinates": [ -4.045638888888891, 5.358083333333331 ] } },
{ "type": "Feature", "properties": { "fid": 1610.0, "Cod": "Att-68", "Commune": "Attécoubé", "Type_Capac": "20m3", "Nom": "Carrefour Thomas", "Num_Coffre": 2.0, "X": 382283.00000000006, "Y": 592338.3, "Affectatio": "Précollecte", "Num_Circu": "CDSM_500 - AMPLIROLL/Tt - NOUVEAU", "Amenagemen": "Plateforme pour 1 coffre", "Statut": "actif", "Time": "08/07/2024", "Quartier": "Agban Attié" }, "geometry": { "type": "Point", "coordinates": [ -4.050527777777778, 5.355916666666666 ] } },
{ "type": "Feature", "properties": { "fid": 1611.0, "Cod": "Adj-43", "Commune": "Adjamé", "Type_Capac": "20m3", "Nom": "Garage marché mouton", "Num_Coffre": 0.0, "X": 385826.1, "Y": 593418.1, "Affectatio": "Précollecte", "Num_Circu": "CDSM_500 - AMPLIROLL/Tt - NOUVEAU", "Amenagemen": "Pas de Plateforme", "Statut": "Supprimé", "Time": "27/06/2024", "Quartier": "Sodeci - Filtisac" }, "geometry": { "type": "Point", "coordinates": [ -4.029308333333335, 5.370519444444443 ] } },
{ "type": "Feature", "properties": { "fid": 1612.0, "Cod": "Yop-291", "Commune": "Yopougon", "Type_Capac": "20m3", "Nom": "Kowéït Canal", "Num_Coffre": 1.0, "X": 382458.6, "Y": 587561.2, "Affectatio": "Précollecte", "Num_Circu": "CDSM_500 - AMPLIROLL/Tt - NOUVEAU", "Amenagemen": "Pas de Plateforme", "Statut": "actif", "Time": "31/05/2024", "Quartier": "Koweit" }, "geometry": { "type": "Point", "coordinates": [ -4.0528690760895, 5.321680448186688 ] } },
{ "type": "Feature", "properties": { "fid": 1613.0, "Cod": "Yop-280\n", "Commune": "Yopougon", "Type_Capac": "5m3", "Nom": "Feu de Complexe", "Num_Coffre": 1.0, "X": 382301.87815321767, "Y": 590364.53448314231, "Affectatio": "Collecte", "Num_Circu": "CDSM_102", "Amenagemen": null, "Statut": "actif", "Time": "17/05/2024", "Quartier": null }, "geometry": { "type": "Point", "coordinates": [ -4.062237744588828, 5.340133300831952 ] } },
{ "type": "Feature", "properties": { "fid": 1614.0, "Cod": "Yop-182", "Commune": "Yopougon", "Type_Capac": "5m3", "Nom": "BICICI Nouveau Quartier", "Num_Coffre": 1.0, "X": 382303.54064303893, "Y": 590150.14152530022, "Affectatio": "Collecte", "Num_Circu": "CDSM_102", "Amenagemen": "Pas de plateforme", "Statut": "actif", "Time": "24/04/2024", "Quartier": "Banco Nord" }, "geometry": { "type": "Point", "coordinates": [ -4.062230753402289, 5.338175812057719 ] } },
{ "type": "Feature", "properties": { "fid": 1615.0, "Cod": "Yop-271", "Commune": "Yopougon", "Type_Capac": "5m3", "Nom": "Au Charbon", "Num_Coffre": 1.0, "X": 376569.04989196197, "Y": 590116.63956093078, "Affectatio": "Collecte", "Num_Circu": "CDSM_107", "Amenagemen": "Pas de Plateforme", "Statut": "actif", "Time": "15/04/2024", "Quartier": "Niangon Adjamé 2ème Extension" }, "geometry": { "type": "Point", "coordinates": [ -4.115694892223737, 5.337629423723007 ] } },
{ "type": "Feature", "properties": { "fid": 1616.0, "Cod": "Yop-270", "Commune": "Yopougon", "Type_Capac": "4m3", "Nom": "Pharmacie de Gesco Marché", "Num_Coffre": 1.0, "X": 378140.33335784823, "Y": 592781.3872246989, "Affectatio": "Collecte", "Num_Circu": "CDSM_107", "Amenagemen": "Pas de plateforme", "Statut": "actif", "Time": "12/04/2024", "Quartier": "Yopougon Hopital" }, "geometry": { "type": "Point", "coordinates": [ -4.097300534966359, 5.363601025561785 ] } },
{ "type": "Feature", "properties": { "fid": 1617.0, "Cod": "Att-67", "Commune": "Attécoubé", "Type_Capac": "5m3", "Nom": "Biegoussi", "Num_Coffre": 1.0, "X": 385601.62202794722, "Y": 590945.85396300664, "Affectatio": "Collecte", "Num_Circu": "CSDM_109,CSDM_122", "Amenagemen": "Pas de plateforme", "Statut": "actif", "Time": "24/04/2024", "Quartier": "Bidjan-Té" }, "geometry": { "type": "Point", "coordinates": [ -4.032474547423663, 5.34544822015001 ] } },
{ "type": "Feature", "properties": { "fid": 1618.0, "Cod": "Att-66", "Commune": "Attécoubé", "Type_Capac": "5m3", "Nom": "Au Charbon", "Num_Coffre": 1.0, "X": 385002.64572867687, "Y": 591289.16719624517, "Affectatio": "Collecte", "Num_Circu": "CSDM_109,CSDM_122", "Amenagemen": "Pas de Plateforme", "Statut": "actif", "Time": "24/04/2024", "Quartier": "Espoir" }, "geometry": { "type": "Point", "coordinates": [ -4.037885092946522, 5.348544378979899 ] } },
{ "type": "Feature", "properties": { "fid": 1619.0, "Cod": "Att-65\n", "Commune": "Attécoubé", "Type_Capac": "4m3", "Nom": "Pharmacie Fatima", "Num_Coffre": 1.0, "X": 384960.67074292828, "Y": 591076.26864864316, "Affectatio": "Collecte", "Num_Circu": "CDSM_109_CDSM_122", "Amenagemen": "Pas de plateforme", "Statut": "actif", "Time": "24/04/2024", "Quartier": null }, "geometry": { "type": "Point", "coordinates": [ -4.038260642442958, 5.346618064073679 ] } },
{ "type": "Feature", "properties": { "fid": 1620.0, "Cod": "Yop-281", "Commune": "Yopougon", "Type_Capac": "4m3", "Nom": "Quatrième Pont Toit Rouge", "Num_Coffre": 1.0, "X": 383107.72667439684, "Y": 589888.29412961577, "Affectatio": "Collecte", "Num_Circu": "CDSM_110", "Amenagemen": "Pas de plateforme", "Statut": "actif", "Time": "17/05/2024", "Quartier": "Banco Nord" }, "geometry": { "type": "Point", "coordinates": [ -4.054963676628953, 5.335844324232149 ] } },
{ "type": "Feature", "properties": { "fid": 1621.0, "Cod": "Yop-283", "Commune": "Yopougon", "Type_Capac": "5m3", "Nom": "Marché Bagnon 2", "Num_Coffre": 1.0, "X": 376973.50731364219, "Y": 590270.24007151683, "Affectatio": "Collecte", "Num_Circu": "CDSM_107", "Amenagemen": null, "Statut": "actif", "Time": "25/04/2024", "Quartier": "Niangon Nord 2ème Tranche" }, "geometry": { "type": "Point", "coordinates": [ -4.110324932213747, 5.339201450755186 ] } },
{ "type": "Feature", "properties": { "fid": 1622.0, "Cod": "Yop-282", "Commune": "Yopougon", "Type_Capac": "5m3", "Nom": "Marché Bagnon 1", "Num_Coffre": 1.0, "X": 376853.34171582502, "Y": 590144.75360459788, "Affectatio": "Collecte", "Num_Circu": "CDSM_107", "Amenagemen": "Pas de plateforme", "Statut": "actif", "Time": "17/05/2024", "Quartier": "Niangon Nord 2ème Tranche" }, "geometry": { "type": "Point", "coordinates": [ -4.111407255297112, 5.338064487896766 ] } },
{ "type": "Feature", "properties": { "fid": 1623.0, "Cod": "Yop-186", "Commune": "Yopougon", "Type_Capac": "4m3", "Nom": "Pharmacie Moyaé", "Num_Coffre": 1.0, "X": 377213.89738182601, "Y": 590731.77514385455, "Affectatio": "Collecte", "Num_Circu": "CDSM_107", "Amenagemen": "Pas de Plateforme", "Statut": "actif", "Time": "17/05/2024", "Quartier": "Cimetière" }, "geometry": { "type": "Point", "coordinates": [ -4.10836362318382, 5.343408028483744 ] } },
{ "type": "Feature", "properties": { "fid": 1624.0, "Cod": "Adj-44", "Commune": "Adjamé", "Type_Capac": "4m3", "Nom": "EPV Konaté", "Num_Coffre": 1.0, "X": 387231.03955157293, "Y": 592936.5163043451, "Affectatio": "Collecte", "Num_Circu": "CDSM_111_CDSM_123", "Amenagemen": "Pas de plateforme", "Statut": "actif", "Time": "24/04/2024", "Quartier": "Williamsville 2" }, "geometry": { "type": "Point", "coordinates": [ -4.017803782662329, 5.363416835255553 ] } },
{ "type": "Feature", "properties": { "fid": 1625.0, "Cod": "Adj-42", "Commune": "Adjamé", "Type_Capac": "20m3", "Nom": "Cité Ran", "Num_Coffre": 0.0, "X": 385579.6, "Y": 591843.8, "Affectatio": "Précollecte", "Num_Circu": "CDSM_500 - AMPLIROLL/Tt - NOUVEAU", "Amenagemen": "Pas de Plateforme", "Statut": "Supprimé", "Time": "07/05/2024", "Quartier": "Délégation" }, "geometry": { "type": "Point", "coordinates": [ -4.028442498121081, 5.356265661347006 ] } },
{ "type": "Feature", "properties": { "fid": 1626.0, "Cod": "Yop-183", "Commune": "Yopougon", "Type_Capac": "20m3", "Nom": "Sideci IGES", "Num_Coffre": 2.0, "X": 380293.9, "Y": 588187.0, "Affectatio": "Précollecte", "Num_Circu": "CDSM_500 - AMPLIROLL/Tt - NOUVEAU", "Amenagemen": "Pas de Plateforme", "Statut": "actif", "Time": "17/05/2024", "Quartier": "Yopougon Kouté" }, "geometry": { "type": "Point", "coordinates": [ -4.08033902451709, 5.321196191047925 ] } },
{ "type": "Feature", "properties": { "fid": 1627.0, "Cod": "Yop-169", "Commune": "Yopougon", "Type_Capac": "12m3", "Nom": "Gesco Corridor", "Num_Coffre": 1.0, "X": 377758.48843987845, "Y": 593439.63765927323, "Affectatio": "EcoEburnie", "Num_Circu": "CDSM_507 - AMPLIROLL-YOPOUGON–EEB", "Amenagemen": "Pas de plateforme", "Statut": "actif", "Time": "17/05/2024", "Quartier": "Gesco Attié" }, "geometry": { "type": "Point", "coordinates": [ -4.103292690817535, 5.367880891721811 ] } },
{ "type": "Feature", "properties": { "fid": 1628.0, "Cod": "Yop-261", "Commune": "Yopougon", "Type_Capac": "20m3", "Nom": "Aimé Césaire", "Num_Coffre": 2.0, "X": 379679.6, "Y": 590415.5, "Affectatio": "Précollecte", "Num_Circu": "CDSM_500 - AMPLIROLL/Tt - NOUVEAU", "Amenagemen": "Plateforme pour 1 coffre", "Statut": "actif", "Time": "17/05/2024", "Quartier": "Yopougon Attié" }, "geometry": { "type": "Point", "coordinates": [ -4.083758780569263, 5.343853413260393 ] } },
{ "type": "Feature", "properties": { "fid": 1630.0, "Cod": "Yop-260", "Commune": "Yopougon", "Type_Capac": "4m3", "Nom": "Marché Bédié", "Num_Coffre": 1.0, "X": 378099.84495726612, "Y": 592689.32632778003, "Affectatio": "Collecte", "Num_Circu": "CDSM_107", "Amenagemen": "Plateforme pour 1 coffre", "Statut": "actif", "Time": "15/02/2024", "Quartier": "Gesco Attié" }, "geometry": { "type": "Point", "coordinates": [ -4.100033155666957, 5.361111040929472 ] } },
{ "type": "Feature", "properties": { "fid": 1631.0, "Cod": "Yop-74", "Commune": "Yopougon", "Type_Capac": "20m3", "Nom": "CMEAU", "Num_Coffre": 1.0, "X": 377791.31366421067, "Y": 591946.36231515417, "Affectatio": "Précollecte", "Num_Circu": "CDSM_500 - AMPLIROLL/Tt - NOUVEAU", "Amenagemen": "Plateforme pour 1 coffre", "Statut": "actif", "Time": "15/02/2024", "Quartier": "Gesco Attié" }, "geometry": { "type": "Point", "coordinates": [ -4.102999329293077, 5.354331885534833 ] } },
{ "type": "Feature", "properties": { "fid": 1632.0, "Cod": "Adj-41", "Commune": "Adjamé", "Type_Capac": "4m3", "Nom": "80 Logement", "Num_Coffre": 1.0, "X": 387261.81049909827, "Y": 591066.12825677055, "Affectatio": "Collecte", "Num_Circu": "CDSM_124_CDSM_111", "Amenagemen": "Pas de Plateforme", "Statut": "actif", "Time": "23/02/2024", "Quartier": "Indénié - Adjamé" }, "geometry": { "type": "Point", "coordinates": [ -4.017494329962691, 5.346561140836278 ] } },
{ "type": "Feature", "properties": { "fid": 1633.0, "Cod": "Adj-40", "Commune": "Adjamé", "Type_Capac": "20m3", "Nom": "Marché Oignon", "Num_Coffre": 3.0, "X": 386134.64646744117, "Y": 593245.35266560933, "Affectatio": "Précollecte", "Num_Circu": "CDSM_500 - AMPLIROLL/Tt - NOUVEAU", "Amenagemen": "Pas de Plateforme", "Statut": "actif", "Time": "22/02/2024", "Quartier": "Williamsville 1" }, "geometry": { "type": "Point", "coordinates": [ -4.027964138331631, 5.366586256614569 ] } },
{ "type": "Feature", "properties": { "fid": 1634.0, "Cod": "Adj-39", "Commune": "Adjamé", "Type_Capac": "20m3", "Nom": "Gare Nord (Sotra)", "Num_Coffre": 1.0, "X": 386210.80969159817, "Y": 592465.19741505082, "Affectatio": "Précollecte", "Num_Circu": "CDSM_500 - AMPLIROLL/Tt - NOUVEAU", "Amenagemen": "Pas de Plateforme", "Statut": "actif", "Time": "17/05/2024", "Quartier": "Adjamé Nord" }, "geometry": { "type": "Point", "coordinates": [ -4.027, 5.3592 ] } },
{ "type": "Feature", "properties": { "fid": 1635.0, "Cod": "Adj-38", "Commune": "Adjamé", "Type_Capac": "5m3", "Nom": "PIT", "Num_Coffre": 1.0, "X": 387649.88613203145, "Y": 591589.40174711298, "Affectatio": "Collecte", "Num_Circu": "CDSM-111", "Amenagemen": "Pas de Plateforme", "Statut": "actif", "Time": "22/02/2024", "Quartier": "220 Logements" }, "geometry": { "type": "Point", "coordinates": [ -4.014, 5.3513 ] } },
{ "type": "Feature", "properties": { "fid": 1636.0, "Cod": "Att-30", "Commune": "Attécoubé", "Type_Capac": "5m3", "Nom": "Mosquée Nématoulaye", "Num_Coffre": 1.0, "X": 384006.0, "Y": 590433.5, "Affectatio": "Collecte", "Num_Circu": "CDSM_110, CDSM_122", "Amenagemen": "Pas de Plateforme", "Statut": "actif", "Time": "01/04/2024", "Quartier": "Némantoulaye" }, "geometry": { "type": "Point", "coordinates": [ -4.045698823073591, 5.352957667463321 ] } },
{ "type": "Feature", "properties": { "fid": 1637.0, "Cod": "Yop-266", "Commune": "Yopougon", "Type_Capac": "4m3", "Nom": "Agefosyn Niangon", "Num_Coffre": 1.0, "X": 379070.28480010171, "Y": 588985.85790899885, "Affectatio": "Collecte", "Num_Circu": "CDSM_108", "Amenagemen": "Pas de Plateforme", "Statut": "actif", "Time": "17/05/2024", "Quartier": "Niangon Sud Est" }, "geometry": { "type": "Point", "coordinates": [ -4.090261792524961, 5.323861494020788 ] } },
{ "type": "Feature", "properties": { "fid": 1638.0, "Cod": "Yop-263", "Commune": "Yopougon", "Type_Capac": "20m3", "Nom": "Chapouli Canal", "Num_Coffre": 0.0, "X": 382111.78464559338, "Y": 587674.54476058413, "Affectatio": "EcoEburnie", "Num_Circu": "CDSM_500-Ampiroll", "Amenagemen": "Pas de Plateforme", "Statut": "Supprimé", "Time": "22/05/2024", "Quartier": "Yopougon Kouté" }, "geometry": { "type": "Point", "coordinates": [ -4.063916666666667, 5.315805555555555 ] } },
{ "type": "Feature", "properties": { "fid": 1639.0, "Cod": "Yop-264", "Commune": "Yopougon", "Type_Capac": "4m3", "Nom": "Quatrième Pont Nouveau quartier", "Num_Coffre": 1.0, "X": 382285.01314355404, "Y": 589952.98542226595, "Affectatio": "Collecte", "Num_Circu": "CDSM_102", "Amenagemen": "Pas de Plateforme", "Statut": "actif", "Time": "17/05/2024", "Quartier": "Yopougon Attié" }, "geometry": { "type": "Point", "coordinates": [ -4.062388888888889, 5.336416666666666 ] } },
{ "type": "Feature", "properties": { "fid": 1640.0, "Cod": "Yop-269", "Commune": "Yopougon", "Type_Capac": "20m3", "Nom": "Micao V28", "Num_Coffre": 2.0, "X": 379002.5, "Y": 595398.00000000012, "Affectatio": "Précollecte", "Num_Circu": "CDSM_500 - AMPLIROLL/Tt - NOUVEAU", "Amenagemen": "Pas de Plateforme", "Statut": "actif", "Time": "10/04/2024", "Quartier": "Zone Industrielle" }, "geometry": { "type": "Point", "coordinates": [ -4.096040190348979, 5.394560882329616 ] } },
{ "type": "Feature", "properties": { "fid": 1641.0, "Cod": "Yop-268", "Commune": "Yopougon", "Type_Capac": "5m3", "Nom": "Gesco Pays-Bas", "Num_Coffre": 0.0, "X": 377743.2, "Y": 593455.5, "Affectatio": "Collecte", "Num_Circu": "CDSM_107", "Amenagemen": "Pas de Plateforme", "Statut": "Supprimé", "Time": "27/03/2024", "Quartier": "Gesco Attié" }, "geometry": { "type": "Point", "coordinates": [ -4.119533834646288, 5.372810864534211 ] } },
{ "type": "Feature", "properties": { "fid": 1642.0, "Cod": "Yop-235", "Commune": "Yopougon", "Type_Capac": "5m3", "Nom": "Rond Point Cité Ado", "Num_Coffre": 1.0, "X": 379257.78480055591, "Y": 597126.38810736616, "Affectatio": "Collecte", "Num_Circu": "CDSM_PC", "Amenagemen": "Pas de Aménagement", "Statut": "actif", "Time": "12/10/2023", "Quartier": "Zone Industrielle" }, "geometry": { "type": "Point", "coordinates": [ -4.089875526001459, 5.401283788843927 ] } },
{ "type": "Feature", "properties": { "fid": 1644.0, "Cod": "Yop-247", "Commune": "Yopougon", "Type_Capac": "5m3", "Nom": "Batim", "Num_Coffre": 1.0, "X": 378262.58034342993, "Y": 592390.5078595971, "Affectatio": "Collecte", "Num_Circu": "CDSM_106", "Amenagemen": "Pas de Plateforme", "Statut": "actif", "Time": "23/12/2023", "Quartier": "Gesco Attié" }, "geometry": { "type": "Point", "coordinates": [ -4.098726596918123, 5.358399872096838 ] } },
{ "type": "Feature", "properties": { "fid": 1645.0, "Cod": "Yop-262", "Commune": "Yopougon", "Type_Capac": "20m3", "Nom": "Vakabadougou 2", "Num_Coffre": 1.0, "X": 379225.45519550063, "Y": 598260.99065736134, "Affectatio": "EcoEburnie", "Num_Circu": "CDSM_507 - AMPLIROLL - YOPOUGON – EEB", "Amenagemen": "Pas de plateforme", "Statut": "actif", "Time": "20/12/2023", "Quartier": "Zone Industrielle" }, "geometry": { "type": "Point", "coordinates": [ -4.090131958946586, 5.411513135768473 ] } },
{ "type": "Feature", "properties": { "fid": 1646.0, "Cod": "Son-69", "Commune": "Songon", "Type_Capac": "5m3", "Nom": "Carrefour Salem", "Num_Coffre": 1.0, "X": 370224.9, "Y": 590333.4, "Affectatio": "Collecte", "Num_Circu": "CDSM_101", "Amenagemen": "Pas de Plateforme", "Statut": "actif", "Time": "20/12/2023", "Quartier": null }, "geometry": { "type": "Point", "coordinates": [ -4.170527259042331, 5.339201324216068 ] } },
{ "type": "Feature", "properties": { "fid": 1647.0, "Cod": "Son-27", "Commune": "Songon", "Type_Capac": "5m3", "Nom": "Adiapoté 2", "Num_Coffre": 1.0, "X": 369705.9, "Y": 587063.5, "Affectatio": "Collecte", "Num_Circu": "CDSM_PC", "Amenagemen": "Pas de Plateforme", "Statut": "actif", "Time": "20/12/2023", "Quartier": null }, "geometry": { "type": "Point", "coordinates": [ -4.177622421981874, 5.310314867385569 ] } },
{ "type": "Feature", "properties": { "fid": 1648.0, "Cod": "Yop-250", "Commune": "Yopougon", "Type_Capac": "4m3", "Nom": "Carrefour Sako", "Num_Coffre": 1.0, "X": 377614.10836308566, "Y": 591486.31975533383, "Affectatio": "Collecte", "Num_Circu": "CDSM_107", "Amenagemen": "Plateforme pour 1 coffre", "Statut": "actif", "Time": "15/02/2024", "Quartier": "Bonikro" }, "geometry": { "type": "Point", "coordinates": [ -4.104563888888888, 5.35021111111111 ] } },
{ "type": "Feature", "properties": { "fid": 1649.0, "Cod": "Yop-249", "Commune": "Yopougon", "Type_Capac": "4m3", "Nom": "Boulangerie Epis d'or", "Num_Coffre": 1.0, "X": 377006.60149914294, "Y": 590361.53956047422, "Affectatio": "Collecte", "Num_Circu": "CDSM_107", "Amenagemen": "Plateforme pour 1 coffre", "Statut": "actif", "Time": "15/02/2024", "Quartier": "Niangon Adjamé 2ème Extension" }, "geometry": { "type": "Point", "coordinates": [ -4.110017904422914, 5.340234042541299 ] } },
{ "type": "Feature", "properties": { "fid": 1650.0, "Cod": "Son-70", "Commune": "Songon", "Type_Capac": "20m3", "Nom": "M'Brathé", "Num_Coffre": 1.0, "X": 360423.68941709399, "Y": 587852.58823574556, "Affectatio": "Précollecte", "Num_Circu": "CDSM_500 - AMPLIROLL/Tt - NOUVEAU", "Amenagemen": "Pas de Plateforme", "Statut": "actif", "Time": "30/01/2024", "Quartier": null }, "geometry": { "type": "Point", "coordinates": [ -4.259620969846605, 5.317047304539503 ] } },
{ "type": "Feature", "properties": { "fid": 1651.0, "Cod": "Yop-248", "Commune": "Yopougon", "Type_Capac": "5m3", "Nom": "Uniwax", "Num_Coffre": 1.0, "X": 380410.1000468008, "Y": 592738.66918341187, "Affectatio": "Collecte", "Num_Circu": "CDSM_111", "Amenagemen": "Pas de Plateforme", "Statut": "actif", "Time": "25/04/2024", "Quartier": "Yopougon Attié" }, "geometry": { "type": "Point", "coordinates": [ -4.079352291827012, 5.361583440346775 ] } },
{ "type": "Feature", "properties": { "fid": 1652.0, "Cod": "Yop-254", "Commune": "Yopougon", "Type_Capac": "4m3", "Nom": "Marché Niangon Adjamé", "Num_Coffre": 1.0, "X": 376569.04989196197, "Y": 590116.63956093078, "Affectatio": "Collecte", "Num_Circu": "CDSM_107", "Amenagemen": "Plateforme pour 1 coffre", "Statut": "actif", "Time": "15/02/2024", "Quartier": "Niangon Adjamé 2ème Extension" }, "geometry": { "type": "Point", "coordinates": [ -4.11397222222222, 5.337805555555556 ] } },
{ "type": "Feature", "properties": { "fid": 1653.0, "Cod": "Yop-253", "Commune": "Yopougon", "Type_Capac": "20m3", "Nom": "Super Marché Gesco", "Num_Coffre": 1.0, "X": 378140.33335784823, "Y": 592781.3872246989, "Affectatio": "Précollecte", "Num_Circu": "CDSM_500 - AMPLIROLL/Tt - NOUVEAU", "Amenagemen": "Plateforme pour 1coffre", "Statut": "actif", "Time": "15/02/2024", "Quartier": "Gesco Attié" }, "geometry": { "type": "Point", "coordinates": [ -4.099802579956003, 5.362007346618398 ] } },
{ "type": "Feature", "properties": { "fid": 1655.0, "Cod": "Yop-251", "Commune": "Yopougon", "Type_Capac": "4m3", "Nom": "Pharmacie Alicia", "Num_Coffre": 1.0, "X": 377729.27349927492, "Y": 591680.82185504166, "Affectatio": "Collecte", "Num_Circu": "CDSM_107", "Amenagemen": "Plateforme pour 1 coffre", "Statut": "actif", "Time": "15/02/2024", "Quartier": "Ananeraie" }, "geometry": { "type": "Point", "coordinates": [ -4.103527777777776, 5.35197222222222 ] } },
{ "type": "Feature", "properties": { "fid": 1656.0, "Cod": "Yop-257", "Commune": "Yopougon", "Type_Capac": "4m3", "Nom": "Carrefour Santé", "Num_Coffre": 1.0, "X": 384311.55351730477, "Y": 586958.31019930425, "Affectatio": "Collecte", "Num_Circu": "CDSM_105", "Amenagemen": "Pas de Plateforme", "Statut": "actif", "Time": "15/02/2024", "Quartier": "Yopougon Agbayaté" }, "geometry": { "type": "Point", "coordinates": [ -4.044055555555556, 5.309361111111111 ] } },
{ "type": "Feature", "properties": { "fid": 1657.0, "Cod": "Yop-117", "Commune": "Yopougon", "Type_Capac": "4m3", "Nom": "Carrefour Kiosque", "Num_Coffre": 1.0, "X": 375974.85289392271, "Y": 590063.9721267384, "Affectatio": "Collecte", "Num_Circu": "CDSM_107", "Amenagemen": "Plateforme pour 1 coffre", "Statut": "actif", "Time": "15/02/2024", "Quartier": "Niangon Adjamé 2ème Extension" }, "geometry": { "type": "Point", "coordinates": [ -4.119571701901804, 5.337374992366113 ] } },
{ "type": "Feature", "properties": { "fid": 1658.0, "Cod": "Yop-256", "Commune": "Yopougon", "Type_Capac": "4m3", "Nom": "Garage Niangon Adjamé", "Num_Coffre": 1.0, "X": 375956.34158559085, "Y": 590040.97225338488, "Affectatio": "Collecte", "Num_Circu": "CDSM_107", "Amenagemen": "Plateforme pour 1 coffre", "Statut": "actif", "Time": "15/02/2024", "Quartier": "Niangon Adjamé" }, "geometry": { "type": "Point", "coordinates": [ -4.119430041497705, 5.337106427227789 ] } },
{ "type": "Feature", "properties": { "fid": 1659.0, "Cod": "Yop-255", "Commune": "Yopougon", "Type_Capac": "4m3", "Nom": "Carrefour Barrique", "Num_Coffre": 1.0, "X": 377466.58048461674, "Y": 591097.78099482309, "Affectatio": "Collecte", "Num_Circu": "CDSM_107", "Amenagemen": "Plateforme pour 1 coffre", "Statut": "actif", "Time": "15/02/2024", "Quartier": "Ananeraie" }, "geometry": { "type": "Point", "coordinates": [ -4.106001222429764, 5.346806767691992 ] } },
{ "type": "Feature", "properties": { "fid": 1660.0, "Cod": "Yop-239", "Commune": "Yopougon", "Type_Capac": "4m3", "Nom": "Texaco Mairie Technique Niangon", "Num_Coffre": 1.0, "X": 379070.28480010171, "Y": 588985.85790899885, "Affectatio": "Collecte", "Num_Circu": "CDSM_108", "Amenagemen": "Pas de Plateforme", "Statut": "actif", "Time": "12/12/2024", "Quartier": "Niangon Sud Est" }, "geometry": { "type": "Point", "coordinates": [ -4.091383150844575, 5.327618283818292 ] } },
{ "type": "Feature", "properties": { "fid": 1661.0, "Cod": "Yop-228", "Commune": "Yopougon", "Type_Capac": "5m3", "Nom": "Groupe Scolaire Akoï", "Num_Coffre": 1.0, "X": 378444.87067388737, "Y": 589461.90903975931, "Affectatio": "Collecte", "Num_Circu": "CDSM_106", "Amenagemen": "Pas de Plateforme", "Statut": "actif", "Time": "26/10/2023", "Quartier": "Niangon Nord 2ème Tranche" }, "geometry": { "type": "Point", "coordinates": [ -4.097034417017804, 5.331914068057408 ] } },
{ "type": "Feature", "properties": { "fid": 1662.0, "Cod": "Yop-217", "Commune": "Yopougon", "Type_Capac": "20m3", "Nom": "Vakabadougou 1", "Num_Coffre": 1.0, "X": 379204.83477382961, "Y": 598016.3593396768, "Affectatio": "EcoEburnie", "Num_Circu": "CDSM_507 - AMPLIROLL - YOPOUGON – EEB\n", "Amenagemen": "Pas de plateforme", "Statut": "actif", "Time": "23/10/2023", "Quartier": "Zone Industrielle" }, "geometry": { "type": "Point", "coordinates": [ -4.090314097702501, 5.409300145693122 ] } },
{ "type": "Feature", "properties": { "fid": 1663.0, "Cod": "Att-62", "Commune": "Attécoubé", "Type_Capac": "5m3", "Nom": "Pharmacie Agban-Gare STB", "Num_Coffre": 1.0, "X": 385593.30550706881, "Y": 592387.71298474376, "Affectatio": "Collecte", "Num_Circu": "CDSM_110", "Amenagemen": "Pas de Plateforme", "Statut": "actif", "Time": "17/10/2023", "Quartier": "Abidjan Agban" }, "geometry": { "type": "Point", "coordinates": [ -4.031334897177939, 5.358928315790251 ] } },
{ "type": "Feature", "properties": { "fid": 1664.0, "Cod": "Yop-241", "Commune": "Yopougon", "Type_Capac": "5m3", "Nom": "Pont Saint Rita", "Num_Coffre": 1.0, "X": 378571.46974491258, "Y": 588972.1161005802, "Affectatio": "Collecte", "Num_Circu": "CDSM_108", "Amenagemen": "Pas de Plateforme", "Statut": "actif", "Time": "06/12/2023", "Quartier": "Niangon Sud Est" }, "geometry": { "type": "Point", "coordinates": [ -4.095884149223131, 5.327485993980506 ] } },
{ "type": "Feature", "properties": { "fid": 1665.0, "Cod": "Att-63", "Commune": "Attécoubé", "Type_Capac": "5m3", "Nom": "Carrefour sacrifice", "Num_Coffre": 0.0, "X": 385073.42491301242, "Y": 591186.26374480128, "Affectatio": "Collecte", "Num_Circu": "CDSM_109 - CDSM_122", "Amenagemen": null, "Statut": "Supprimé", "Time": "22/05/2024", "Quartier": "La Paix" }, "geometry": { "type": "Point", "coordinates": [ -4.037244793682551, 5.3476146947251 ] } },
{ "type": "Feature", "properties": { "fid": 1666.0, "Cod": "Yop-240", "Commune": "Yopougon", "Type_Capac": "5m3", "Nom": "Pharmacie Maty", "Num_Coffre": 1.0, "X": 377740.16239617113, "Y": 589555.29835425445, "Affectatio": "Collecte", "Num_Circu": "CDSM_106", "Amenagemen": "Pas de Plateforme", "Statut": "actif", "Time": "14/12/2023", "Quartier": "Niangon Sud Ouest" }, "geometry": { "type": "Point", "coordinates": [ -4.1033951180799, 5.332747384476683 ] } },
{ "type": "Feature", "properties": { "fid": 1667.0, "Cod": "Yop-226", "Commune": "Yopougon", "Type_Capac": "4m3", "Nom": "Pont Kimi", "Num_Coffre": 1.0, "X": 378740.38984335295, "Y": 590319.9022298397, "Affectatio": "Collecte", "Num_Circu": "CDSM_108", "Amenagemen": "Pas de Plateforme", "Statut": "actif", "Time": "26/10/2023", "Quartier": "Niangon Nord 2ème Tranche" }, "geometry": { "type": "Point", "coordinates": [ -4.094361299497947, 5.33959996798329 ] } },
{ "type": "Feature", "properties": { "fid": 1668.0, "Cod": "Yop-111", "Commune": "Yopougon", "Type_Capac": "20m3", "Nom": "Lokoa Amigo", "Num_Coffre": 1.0, "X": 377199.28675463574, "Y": 587145.47515309486, "Affectatio": "Précollecte", "Num_Circu": "CDSM_500 - AMPLIROLL/Tt - NOUVEAU", "Amenagemen": "Pas de Plateforme", "Statut": "actif", "Time": "12/12/2023", "Quartier": "Niangon Lokoa" }, "geometry": { "type": "Point", "coordinates": [ -4.108124975233785, 5.310971423929566 ] } },
{ "type": "Feature", "properties": { "fid": 1669.0, "Cod": "Yop-145", "Commune": "Yopougon", "Type_Capac": "12m3", "Nom": "Intérieur de BAE", "Num_Coffre": 1.0, "X": 379377.27878550114, "Y": 592946.87737850007, "Affectatio": "EcoEburnie", "Num_Circu": "CDSM_507 - AMPLIROLL-YOPOUGON–EEB", "Amenagemen": "Pas de Plateforme", "Statut": "actif", "Time": "20/09/2024", "Quartier": "Yopougon Hopital" }, "geometry": { "type": "Point", "coordinates": [ -4.08868906328532, 5.363367775736229 ] } },
{ "type": "Feature", "properties": { "fid": 1670.0, "Cod": "Yop-243", "Commune": "Yopougon", "Type_Capac": "5m3", "Nom": "Mur du lycée Andokoi", "Num_Coffre": 0.0, "X": 381777.42335086904, "Y": 592967.30734313768, "Affectatio": "Collecte", "Num_Circu": "CDSM_PC", "Amenagemen": "Pas de Plateforme", "Statut": "Supprimé", "Time": "07/12/2023", "Quartier": "Village Andokoi" }, "geometry": { "type": "Point", "coordinates": [ -4.067031286154462, 5.363473200951758 ] } },
{ "type": "Feature", "properties": { "fid": 1671.0, "Cod": "Yop-242", "Commune": "Yopougon", "Type_Capac": "4m3", "Nom": "Pont Lubafrique", "Num_Coffre": 1.0, "X": 377983.70515868353, "Y": 589099.74891975778, "Affectatio": "Collecte", "Num_Circu": "CDSM_108", "Amenagemen": "Pas de plateforme", "Statut": "actif", "Time": "06/12/2023", "Quartier": "Niangon Sud Ouest" }, "geometry": { "type": "Point", "coordinates": [ -4.101190078493982, 5.328630948411964 ] } },
{ "type": "Feature", "properties": { "fid": 1673.0, "Cod": "Yop-245", "Commune": "Yopougon", "Type_Capac": "5m3", "Nom": "Pont Jatak", "Num_Coffre": 1.0, "X": 377803.522063968, "Y": 588302.92133974039, "Affectatio": "Collecte", "Num_Circu": "CDSM_108", "Amenagemen": "Pas de plateforme", "Statut": "actif", "Time": "17/05/2024", "Quartier": "Niangon Sud Ouest" }, "geometry": { "type": "Point", "coordinates": [ -4.10280317117986, 5.32142085553861 ] } },
{ "type": "Feature", "properties": { "fid": 1674.0, "Cod": "Yop-244", "Commune": "Yopougon", "Type_Capac": "20m3", "Nom": "Béago cimetière", "Num_Coffre": 1.0, "X": 381342.93297673878, "Y": 586850.36066204973, "Affectatio": "Précollecte", "Num_Circu": "CDSM_500 - AMPLIROLL/Tt - NOUVEAU", "Amenagemen": "Pas de plateforme", "Statut": "actif", "Time": "17/05/2024", "Quartier": "Béago" }, "geometry": { "type": "Point", "coordinates": [ -4.070756432901105, 5.308567081875298 ] } },
{ "type": "Feature", "properties": { "fid": 1675.0, "Cod": "Yop-225", "Commune": "Yopougon", "Type_Capac": "20m3", "Nom": "Béago École", "Num_Coffre": 1.0, "X": 381204.27325141703, "Y": 586673.79893393524, "Affectatio": "Précollecte", "Num_Circu": "CDSM_500 - AMPLIROLL/Tt - NOUVEAU", "Amenagemen": "Pas de plateforme", "Statut": "actif", "Time": "12/12/2023", "Quartier": "Béago" }, "geometry": { "type": "Point", "coordinates": [ -4.072292861957025, 5.306360773631435 ] } },
{ "type": "Feature", "properties": { "fid": 1676.0, "Cod": "Adj-21", "Commune": "Adjamé", "Type_Capac": "20m3", "Nom": "Carine couture", "Num_Coffre": 0.0, "X": 387538.8, "Y": 592107.8, "Affectatio": "Précollecte", "Num_Circu": "CDSM_500 - AMPLIROLL/Tt - NOUVEAU", "Amenagemen": "Pas de Plateforme", "Statut": "Supprimé", "Time": "18/09/2023", "Quartier": "Ebrié" }, "geometry": { "type": "Point", "coordinates": [ -4.015010219078308, 5.355987301481004 ] } },
{ "type": "Feature", "properties": { "fid": 1677.0, "Cod": "Son-2", "Commune": "Songon", "Type_Capac": "20m3", "Nom": "Carrefour Bimbresso", "Num_Coffre": 0.0, "X": 372601.2, "Y": 590563.7, "Affectatio": "Précollecte", "Num_Circu": "CDSM_500 - AMPLIROLL/Tt - NOUVEAU", "Amenagemen": "Pas Plateforme", "Statut": "Supprimé", "Time": "01/02/2023", "Quartier": null }, "geometry": { "type": "Point", "coordinates": [ -4.149785051932435, 5.341783118074665 ] } },
{ "type": "Feature", "properties": { "fid": 1678.0, "Cod": "Att-40", "Commune": "Attécoubé", "Type_Capac": "20m3", "Nom": "Loukoukro - Carrefour mossikro", "Num_Coffre": 0.0, "X": 384192.1, "Y": 590884.2, "Affectatio": "Précollecte", "Num_Circu": "CDSM_500 - AMPLIROLL/Tt - NOUVEAU", "Amenagemen": "Pas de Plateforme", "Statut": "Supprimé", "Time": "18/09/2023", "Quartier": "Loukoukro" }, "geometry": { "type": "Point", "coordinates": [ -4.045193473767588, 5.344869022462563 ] } },
{ "type": "Feature", "properties": { "fid": 1682.0, "Cod": "Yop-200", "Commune": "Yopougon", "Type_Capac": "5m3", "Nom": "EPP BAD", "Num_Coffre": 0.0, "X": 384326.0, "Y": 587564.9, "Affectatio": "Collecte", "Num_Circu": "CDSM_105", "Amenagemen": "Pas de Plateforme", "Statut": "Supprimé", "Time": "21/12/2023", "Quartier": "Jérusalem 1" }, "geometry": { "type": "Point", "coordinates": [ -4.043934429016414, 5.314847950469379 ] } },
{ "type": "Feature", "properties": { "fid": 1683.0, "Cod": "Yop-210", "Commune": "Yopougon", "Type_Capac": "5m3", "Nom": "Carrefour Mamie Adjoua", "Num_Coffre": 0.0, "X": 378630.3, "Y": 592205.0, "Affectatio": "Collecte", "Num_Circu": "CSDM_106", "Amenagemen": "Pas de Plateforme", "Statut": "Supprimé", "Time": "07/11/2023", "Quartier": "Ananeraie" }, "geometry": { "type": "Point", "coordinates": [ -4.095339138257166, 5.357887437811424 ] } },
{ "type": "Feature", "properties": { "fid": 1685.0, "Cod": "Yop-180", "Commune": "Yopougon", "Type_Capac": "5m3", "Nom": "Carrefour Obama", "Num_Coffre": 0.0, "X": 378952.7, "Y": 590306.9, "Affectatio": "Collecte", "Num_Circu": "CDSM_103", "Amenagemen": "Pas de Plateforme", "Statut": "Supprimé", "Time": "01/12/2023", "Quartier": "Niangon Nord 1ère Tranche" }, "geometry": { "type": "Point", "coordinates": [ -4.092465346642276, 5.339565060198939 ] } },
{ "type": "Feature", "properties": { "fid": 1686.0, "Cod": "Yop-174", "Commune": "Yopougon", "Type_Capac": "5m3", "Nom": "Jeunes Filles Singa", "Num_Coffre": 0.0, "X": 383759.7, "Y": 589130.7, "Affectatio": "Collecte", "Num_Circu": "CDSM_105", "Amenagemen": "Pas de Plateforme", "Statut": "Supprimé", "Time": "06/12/2023", "Quartier": "Yopougon Banco Sud" }, "geometry": { "type": "Point", "coordinates": [ -4.04906859154996, 5.329001953641059 ] } },
{ "type": "Feature", "properties": { "fid": 1687.0, "Cod": "Yop-213", "Commune": "Yopougon", "Type_Capac": "5m3", "Nom": "Covid_Pharmacie Toit Rouge", "Num_Coffre": 0.0, "X": 383007.3, "Y": 589395.3, "Affectatio": "Collecte", "Num_Circu": "CSDM_110,CSDM_105,CSDM_122", "Amenagemen": "Pas de Plateforme", "Statut": "Supprimé", "Time": "06/12/2023", "Quartier": "Yopougon Banco Sud" }, "geometry": { "type": "Point", "coordinates": [ -4.055862310950982, 5.331383644789301 ] } },
{ "type": "Feature", "properties": { "fid": 1688.0, "Cod": "Yop-85", "Commune": "Yopougon", "Type_Capac": "5m3", "Nom": "Pharmacie chenain", "Num_Coffre": 1.0, "X": 384270.4, "Y": 588104.5, "Affectatio": "Collecte", "Num_Circu": "CDSM_105", "Amenagemen": "Pas de Plateforme", "Statut": "actif", "Time": "24/04/2024", "Quartier": "Yopougon Agbayaté" }, "geometry": { "type": "Point", "coordinates": [ -4.04444437786968, 5.319727794498641 ] } },
{ "type": "Feature", "properties": { "fid": 1689.0, "Cod": "Yop-100", "Commune": "Yopougon", "Type_Capac": "5m3", "Nom": "Béago Village", "Num_Coffre": 0.0, "X": 381109.1, "Y": 586616.1, "Affectatio": "Collecte", "Num_Circu": "CDSM_PC", "Amenagemen": "Pas de Plateforme", "Statut": "Supprimé", "Time": "21/12/2023", "Quartier": "Béago" }, "geometry": { "type": "Point", "coordinates": [ -4.07294806060492, 5.306216317536347 ] } },
{ "type": "Feature", "properties": { "fid": 1690.0, "Cod": "Yop-118", "Commune": "Yopougon", "Type_Capac": "20m3", "Nom": "Bouguinisso avant dalot", "Num_Coffre": 1.0, "X": 375707.1, "Y": 590651.5, "Affectatio": "Précollecte", "Num_Circu": "CDSM_500 - AMPLIROLL/Tt - NOUVEAU", "Amenagemen": "Pas de Plateforme", "Statut": "actif", "Time": "25/04/2024", "Quartier": "Niangon Adjamé 2ème Extension" }, "geometry": { "type": "Point", "coordinates": [ -4.121759165304519, 5.342629099525351 ] } },
{ "type": "Feature", "properties": { "fid": 1691.0, "Cod": "Yop-76", "Commune": "Yopougon", "Type_Capac": "5m3", "Nom": "Banco panneau orange", "Num_Coffre": 1.0, "X": 382844.1, "Y": 592398.7, "Affectatio": "Collecte", "Num_Circu": "CDSM_110", "Amenagemen": "Pas de Plateforme", "Statut": "actif", "Time": "07/12/2024", "Quartier": "Garage Machine" }, "geometry": { "type": "Point", "coordinates": [ -4.057381623321652, 5.358546792359241 ] } },
{ "type": "Feature", "properties": { "fid": 1693.0, "Cod": "Adj-30", "Commune": "Adjamé", "Type_Capac": "5m3", "Nom": "CNPS", "Num_Coffre": 0.0, "X": 386778.3, "Y": 590525.4, "Affectatio": "Collecte", "Num_Circu": "CDSM_111", "Amenagemen": "Pas de Plateforme", "Statut": "Supprimé", "Time": "22/05/2024", "Quartier": "Indénié - Adjamé" }, "geometry": { "type": "Point", "coordinates": [ -4.02184957504395, 5.341662958764993 ] } },
{ "type": "Feature", "properties": { "fid": 1694.0, "Cod": "Adj-29", "Commune": "Adjamé", "Type_Capac": "5m3", "Nom": "INSP", "Num_Coffre": 0.0, "X": 386286.8, "Y": 590261.2, "Affectatio": "Collecte", "Num_Circu": "CDSM_111", "Amenagemen": "Pas de Plateforme", "Statut": "Supprimé", "Time": "24/04/2024", "Quartier": null }, "geometry": { "type": "Point", "coordinates": [ -4.026281009731339, 5.339265854383469 ] } },
{ "type": "Feature", "properties": { "fid": 1695.0, "Cod": "Att-44", "Commune": "Attécoubé", "Type_Capac": "5m3", "Nom": "Sebroko", "Num_Coffre": 0.0, "X": 385840.7, "Y": 590316.7, "Affectatio": "Collecte", "Num_Circu": "CDSM_109, CDSM_122", "Amenagemen": "Pas de Plateforme", "Statut": "Supprimé", "Time": "21/02/2023", "Quartier": "Sébroko" }, "geometry": { "type": "Point", "coordinates": [ -4.030307536712688, 5.339761115603562 ] } },
{ "type": "Feature", "properties": { "fid": 1696.0, "Cod": "Son-67", "Commune": "Songon", "Type_Capac": "20m3", "Nom": "Agban pharmacie (mosquée)", "Num_Coffre": 0.0, "X": 361213.335, "Y": 588843.835, "Affectatio": "Précollecte", "Num_Circu": "CDSM_500 - AMPLIROLL/Tt - NOUVEAU", "Amenagemen": "Pas de Plateforme", "Statut": "Supprimé", "Time": "08/12/2023", "Quartier": null }, "geometry": { "type": "Point", "coordinates": [ -4.252514023438231, 5.326027004462453 ] } },
{ "type": "Feature", "properties": { "fid": 1697.0, "Cod": "Son-66", "Commune": "Songon", "Type_Capac": "5m3", "Nom": "Bimbresso Marché", "Num_Coffre": 1.0, "X": 372018.9, "Y": 587819.5, "Affectatio": "Collecte", "Num_Circu": "CDSM_101", "Amenagemen": "Pas de Plateforme", "Statut": "actif", "Time": "28/11/2023", "Quartier": null }, "geometry": { "type": "Point", "coordinates": [ -4.154993266622402, 5.316952844841896 ] } },
{ "type": "Feature", "properties": { "fid": 1698.0, "Cod": "Son-65", "Commune": "Songon", "Type_Capac": "5m3", "Nom": "Abadjin Doumé Chef Village", "Num_Coffre": 1.0, "X": 373013.2, "Y": 587150.2, "Affectatio": "Collecte", "Num_Circu": "CDSM_PC", "Amenagemen": "Pas de Plateforme", "Statut": "actif", "Time": "28/11/2023", "Quartier": null }, "geometry": { "type": "Point", "coordinates": [ -4.146010020648857, 5.310915954611533 ] } },
{ "type": "Feature", "properties": { "fid": 1699.0, "Cod": "Son-64", "Commune": "Songon", "Type_Capac": "5m3", "Nom": "Kassemblé Cité Promogim", "Num_Coffre": 1.0, "X": 365472.3, "Y": 589014.0, "Affectatio": "Collecte", "Num_Circu": "CDSM_101", "Amenagemen": "Pas de Plateforme", "Statut": "actif", "Time": "31/10/2023", "Quartier": null }, "geometry": { "type": "Point", "coordinates": [ -4.214086911486598, 5.327643035818212 ] } },
{ "type": "Feature", "properties": { "fid": 1700.0, "Cod": "Yop-3", "Commune": "Yopougon", "Type_Capac": "20m3", "Nom": "Gare KS", "Num_Coffre": 1.0, "X": 381379.2, "Y": 591015.5, "Affectatio": "Précollecte", "Num_Circu": "CDSM_500 - AMPLIROLL/Tt - NOUVEAU", "Amenagemen": "Pas de Plateforme", "Statut": "actif", "Time": "13/11/2023", "Quartier": "Yopougon Attié" }, "geometry": { "type": "Point", "coordinates": [ -4.070579654980353, 5.346012859157928 ] } },
{ "type": "Feature", "properties": { "fid": 1701.0, "Cod": "Yop-2", "Commune": "Yopougon", "Type_Capac": "20m3", "Nom": "Ficgayo", "Num_Coffre": 1.0, "X": 381112.1, "Y": 591419.1, "Affectatio": "Précollecte", "Num_Circu": "CDSM_500 - AMPLIROLL/Tt - NOUVEAU", "Amenagemen": "Pas de Plateforme", "Statut": "actif", "Time": "08/12/2023", "Quartier": "Yopougon Attié" }, "geometry": { "type": "Point", "coordinates": [ -4.072996365167387, 5.349659180914385 ] } },
{ "type": "Feature", "properties": { "fid": 1702.0, "Cod": "Yop-1", "Commune": "Yopougon", "Type_Capac": "20m3", "Nom": "Wally", "Num_Coffre": 1.0, "X": 382283.00000000006, "Y": 592338.3, "Affectatio": "Précollecte", "Num_Circu": "CDSM_500 - AMPLIROLL/Tt - NOUVEAU", "Amenagemen": "Plateforme pour 1 coffre", "Statut": "actif", "Time": "08/12/2023", "Quartier": "Banco Nord" }, "geometry": { "type": "Point", "coordinates": [ -4.062444256592158, 5.357991708305305 ] } },
{ "type": "Feature", "properties": { "fid": 1703.0, "Cod": "Son-68", "Commune": "Songon", "Type_Capac": "20m3", "Nom": "Groupe Scolaire (N'Djèm)", "Num_Coffre": 1.0, "X": 363372.82, "Y": 582620.28, "Affectatio": "EcoEburnie", "Num_Circu": "CDSM_506 - AMPLIROLL - SONGON – EEB", "Amenagemen": "Pas de Plateforme", "Statut": "actif", "Time": "13/11/2023", "Quartier": null }, "geometry": { "type": "Point", "coordinates": [ -4.232916707977459, 5.269777822628129 ] } },
{ "type": "Feature", "properties": { "fid": 1704.0, "Cod": "Yop-7", "Commune": "Yopougon", "Type_Capac": "20m3", "Nom": "Marché Toit Rouge", "Num_Coffre": 2.0, "X": 383838.4, "Y": 588854.0, "Affectatio": "Précollecte", "Num_Circu": "CDSM_500 - AMPLIROLL/Tt - NOUVEAU", "Amenagemen": "Plateforme pour 2 coffres", "Statut": "actif", "Time": "12/12/2023", "Quartier": "Yopougon Banco Sud" }, "geometry": { "type": "Point", "coordinates": [ -4.048354161977565, 5.326500410671875 ] } },
{ "type": "Feature", "properties": { "fid": 1705.0, "Cod": "Yop-6", "Commune": "Yopougon", "Type_Capac": "20m3", "Nom": "Lycée jeune fille", "Num_Coffre": 1.0, "X": 383572.99999999994, "Y": 590979.5, "Affectatio": "Précollecte", "Num_Circu": "CDSM_500 - AMPLIROLL/Tt - NOUVEAU", "Amenagemen": "Plateforme pour 1", "Statut": "actif", "Time": "08/12/2023", "Quartier": "Banco Nord" }, "geometry": { "type": "Point", "coordinates": [ -4.050781831686145, 5.345721468453825 ] } },
{ "type": "Feature", "properties": { "fid": 1706.0, "Cod": "Yop-5", "Commune": "Yopougon", "Type_Capac": "20m3", "Nom": "Rue des Princes (Complexe Sportif)", "Num_Coffre": 2.0, "X": 382070.9, "Y": 590581.0, "Affectatio": "Précollecte", "Num_Circu": "CDSM_500 - AMPLIROLL/Tt - NOUVEAU", "Amenagemen": "Pas de Plateforme", "Statut": "actif", "Time": "10/04/2024", "Quartier": "Yopougon Attié" }, "geometry": { "type": "Point", "coordinates": [ -4.064330852065917, 5.342093687703523 ] } },
{ "type": "Feature", "properties": { "fid": 1707.0, "Cod": "Yop-4", "Commune": "Yopougon", "Type_Capac": "20m3", "Nom": "Marché Selmer", "Num_Coffre": 1.0, "X": 381540.3, "Y": 590431.0, "Affectatio": "Précollecte", "Num_Circu": "CDSM_500 - AMPLIROLL/Tt - NOUVEAU", "Amenagemen": "Plateforme pour 1", "Statut": "actif", "Time": "12/12/2023", "Quartier": "Yopougon Attié" }, "geometry": { "type": "Point", "coordinates": [ -4.069116695744716, 5.340728626724147 ] } },
{ "type": "Feature", "properties": { "fid": 1708.0, "Cod": "Yop-13", "Commune": "Yopougon", "Type_Capac": "20m3", "Nom": "Chapouli Terrain", "Num_Coffre": 6.0, "X": 382458.6, "Y": 587561.2, "Affectatio": "Précollecte", "Num_Circu": "CDSM_500 - AMPLIROLL/Tt - NOUVEAU", "Amenagemen": "Pas de Plateforme", "Statut": "actif", "Time": "12/12/2023", "Quartier": "Yopougon Kouté" }, "geometry": { "type": "Point", "coordinates": [ -4.060785339310678, 5.314785744425294 ] } },
{ "type": "Feature", "properties": { "fid": 1709.0, "Cod": "Yop-10", "Commune": "Yopougon", "Type_Capac": "20m3", "Nom": "Koweit Lagune", "Num_Coffre": 0.0, "X": 383457.7, "Y": 587023.6, "Affectatio": "Précollecte", "Num_Circu": "CDSM_500 - AMPLIROLL/Tt - NOUVEAU", "Amenagemen": "Plateforme pour 1", "Statut": "Supprimé", "Time": "03/04/2024", "Quartier": "Koweit" }, "geometry": { "type": "Point", "coordinates": [ -4.05173995535481, 5.309855828595525 ] } },
{ "type": "Feature", "properties": { "fid": 1710.0, "Cod": "Yop-9", "Commune": "Yopougon", "Type_Capac": "20m3", "Nom": "Santé village", "Num_Coffre": 1.0, "X": 384134.6, "Y": 586559.3, "Affectatio": "Précollecte", "Num_Circu": "CDSM_500 - AMPLIROLL/Tt - NOUVEAU", "Amenagemen": "Plateforme pour 1", "Statut": "actif", "Time": "12/12/2023", "Quartier": "Yopougon Agbayaté" }, "geometry": { "type": "Point", "coordinates": [ -4.045646252244228, 5.305749354778981 ] } },
{ "type": "Feature", "properties": { "fid": 1711.0, "Cod": "Yop-8", "Commune": "Yopougon", "Type_Capac": "20m3", "Nom": "Grand Maxime", "Num_Coffre": 0.0, "X": 383796.0, "Y": 588186.2, "Affectatio": "Précollecte", "Num_Circu": "CDSM_500 - AMPLIROLL/Tt - NOUVEAU", "Amenagemen": "Pas de Plateforme", "Statut": "Supprimé", "Time": "22/05/2024", "Quartier": "Yopougon Agbayaté" }, "geometry": { "type": "Point", "coordinates": [ -4.048726542231976, 5.320459503887475 ] } },
{ "type": "Feature", "properties": { "fid": 1712.0, "Cod": "Son-43", "Commune": "Songon", "Type_Capac": "20m3", "Nom": "Pont Jacqueville (N'djèm)", "Num_Coffre": 1.0, "X": 362753.5, "Y": 582873.4, "Affectatio": "EcoEburnie", "Num_Circu": "CDSM_506 - AMPLIROLL - SONGON – EEB", "Amenagemen": "Pas Plateforme", "Statut": "actif", "Time": "13/11/2023", "Quartier": null }, "geometry": { "type": "Point", "coordinates": [ -4.239214967338387, 5.271759698932798 ] } },
{ "type": "Feature", "properties": { "fid": 1713.0, "Cod": "Son-42", "Commune": "Songon", "Type_Capac": "5m3", "Nom": "Abiathé Carrefour", "Num_Coffre": 1.0, "X": 360591.2, "Y": 588798.2, "Affectatio": "Collecte", "Num_Circu": "CDSM_101", "Amenagemen": "Pas de Plateforme", "Statut": "actif", "Time": "31/10/2023", "Quartier": null }, "geometry": { "type": "Point", "coordinates": [ -4.258126878580142, 5.325602821110144 ] } },
{ "type": "Feature", "properties": { "fid": 1714.0, "Cod": "Son-34", "Commune": "Songon", "Type_Capac": "5m3", "Nom": "Kassemblé Cité N'zikan", "Num_Coffre": 1.0, "X": 366916.99999999994, "Y": 588870.8, "Affectatio": "Collecte", "Num_Circu": "CDSM_101", "Amenagemen": "Pas de Plateforme", "Statut": "actif", "Time": "12/12/2023", "Quartier": null }, "geometry": { "type": "Point", "coordinates": [ -4.201048202968917, 5.326373433500487 ] } },
{ "type": "Feature", "properties": { "fid": 1715.0, "Cod": "Son-29", "Commune": "Songon", "Type_Capac": "5m3", "Nom": "Adiapoto 1", "Num_Coffre": 2.0, "X": 367870.3, "Y": 587434.2, "Affectatio": "Collecte", "Num_Circu": "CDSM_PC", "Amenagemen": "Pas de Plateforme", "Statut": "actif", "Time": "28/11/2023", "Quartier": null }, "geometry": { "type": "Point", "coordinates": [ -4.192421104303959, 5.313396737990763 ] } },
{ "type": "Feature", "properties": { "fid": 1716.0, "Cod": "Son-49", "Commune": "Songon", "Type_Capac": "5m3", "Nom": "Kassemblé SODECI", "Num_Coffre": 1.0, "X": 365792.99999999994, "Y": 588792.6, "Affectatio": "Collecte", "Num_Circu": "CDSM_101", "Amenagemen": "Pas de Plateforme", "Statut": "actif", "Time": "30/01/2024", "Quartier": null }, "geometry": { "type": "Point", "coordinates": [ -4.2111891720562, 5.325646285296298 ] } },
{ "type": "Feature", "properties": { "fid": 1717.0, "Cod": "Son-47", "Commune": "Songon", "Type_Capac": "5m3", "Nom": "Bimbresso CNRA", "Num_Coffre": 1.0, "X": 372074.4, "Y": 587609.3, "Affectatio": "Collecte", "Num_Circu": "CDSM_101", "Amenagemen": "Pas de Plateforme", "Statut": "actif", "Time": "28/11/2023", "Quartier": null }, "geometry": { "type": "Point", "coordinates": [ -4.154488922251784, 5.315052589612296 ] } },
{ "type": "Feature", "properties": { "fid": 1718.0, "Cod": "Son-46", "Commune": "Songon", "Type_Capac": "20m3", "Nom": "Kasemblé manioc", "Num_Coffre": 1.0, "X": 365542.4, "Y": 587597.5, "Affectatio": "EcoEburnie", "Num_Circu": "CDSM_506 - AMPLIROLL - SONGON – EEB", "Amenagemen": "Pas Plateforme", "Statut": "actif", "Time": "13/11/2023", "Quartier": null }, "geometry": { "type": "Point", "coordinates": [ -4.21342926035561, 5.314832762808254 ] } },
{ "type": "Feature", "properties": { "fid": 1719.0, "Cod": "Son-45", "Commune": "Songon", "Type_Capac": "20m3", "Nom": "Kasemblé terrain", "Num_Coffre": 1.0, "X": 365812.99999999994, "Y": 587479.0, "Affectatio": "EcoEburnie", "Num_Circu": "CDSM_506 - AMPLIROLL - SONGON – EEB", "Amenagemen": "Pas Plateforme", "Statut": "actif", "Time": "13/11/2023", "Quartier": null }, "geometry": { "type": "Point", "coordinates": [ -4.210985473227773, 5.313765786587663 ] } },
{ "type": "Feature", "properties": { "fid": 1720.0, "Cod": "Son-55", "Commune": "Songon", "Type_Capac": "5m3", "Nom": "Agban Attié 2", "Num_Coffre": 1.0, "X": 361941.8, "Y": 591888.6, "Affectatio": "Collecte", "Num_Circu": "CDSM_PC", "Amenagemen": "Pas de Plateforme", "Statut": "actif", "Time": "11/11/2023", "Quartier": null }, "geometry": { "type": "Point", "coordinates": [ -4.245996479277585, 5.353578333323736 ] } },
{ "type": "Feature", "properties": { "fid": 1721.0, "Cod": "Son-54", "Commune": "Songon", "Type_Capac": "5m3", "Nom": "Dagbé 2", "Num_Coffre": 1.0, "X": 363892.7, "Y": 587362.9, "Affectatio": "Collecte", "Num_Circu": "CDSM_PC", "Amenagemen": "Pas de Plateforme", "Statut": "actif", "Time": "31/10/2023", "Quartier": null }, "geometry": { "type": "Point", "coordinates": [ -4.228310677460813, 5.312681482649507 ] } },
{ "type": "Feature", "properties": { "fid": 1722.0, "Cod": "Son-53", "Commune": "Songon", "Type_Capac": "5m3", "Nom": "Dagbé 1", "Num_Coffre": 1.0, "X": 363776.99999999994, "Y": 587371.4, "Affectatio": "Collecte", "Num_Circu": "CDSM_PC", "Amenagemen": "Pas de Plateforme", "Statut": "actif", "Time": "31/10/2023", "Quartier": null }, "geometry": { "type": "Point", "coordinates": [ -4.229354810705405, 5.312756282014481 ] } },
{ "type": "Feature", "properties": { "fid": 1723.0, "Cod": "Son-51", "Commune": "Songon", "Type_Capac": "5m3", "Nom": "Kassemblé entrée Cité", "Num_Coffre": 2.0, "X": 365762.2, "Y": 588239.7, "Affectatio": "Collecte", "Num_Circu": "CDSM_101", "Amenagemen": "Pas de Plateforme", "Statut": "actif", "Time": "31/10/2023", "Quartier": null }, "geometry": { "type": "Point", "coordinates": [ -4.211590529910423, 5.321349726901409 ] } },
{ "type": "Feature", "properties": { "fid": 1724.0, "Cod": "Son-63", "Commune": "Songon", "Type_Capac": "5m3", "Nom": "Kassemblé Cité Arc-en-ciel", "Num_Coffre": 1.0, "X": 366289.5, "Y": 588619.1, "Affectatio": "Collecte", "Num_Circu": "CDSM_101", "Amenagemen": "Pas de Plateforme", "Statut": "actif", "Time": "31/10/2023", "Quartier": null }, "geometry": { "type": "Point", "coordinates": [ -4.206705980322373, 5.324085858404129 ] } },
{ "type": "Feature", "properties": { "fid": 1725.0, "Cod": "Son-62", "Commune": "Songon", "Type_Capac": "5m3", "Nom": "kassemblé cité venus", "Num_Coffre": 2.0, "X": 365358.3, "Y": 588431.0, "Affectatio": "Collecte", "Num_Circu": "CDSM_101", "Amenagemen": "Pas de Plateforme", "Statut": "actif", "Time": "31/10/2023", "Quartier": null }, "geometry": { "type": "Point", "coordinates": [ -4.215105227801965, 5.32236807218077 ] } },
{ "type": "Feature", "properties": { "fid": 1726.0, "Cod": "Son-59", "Commune": "Songon", "Type_Capac": "5m3", "Nom": "M'braté Ecole Primaire", "Num_Coffre": 1.0, "X": 360671.5, "Y": 588654.0, "Affectatio": "Collecte", "Num_Circu": "CDSM_101", "Amenagemen": "Pas de Plateforme", "Statut": "actif", "Time": "31/10/2023", "Quartier": null }, "geometry": { "type": "Point", "coordinates": [ -4.257399660410096, 5.324300107505696 ] } },
{ "type": "Feature", "properties": { "fid": 1727.0, "Cod": "Son-57", "Commune": "Songon", "Type_Capac": "5m3", "Nom": "Abiatté village", "Num_Coffre": 1.0, "X": 356885.5, "Y": 595449.8, "Affectatio": "Collecte", "Num_Circu": "CDSM_PC", "Amenagemen": "Pas de Plateforme", "Statut": "actif", "Time": "31/10/2023", "Quartier": null }, "geometry": { "type": "Point", "coordinates": [ -4.291690459817157, 5.385692051723677 ] } },
{ "type": "Feature", "properties": { "fid": 1728.0, "Cod": "Son-4", "Commune": "Songon", "Type_Capac": "20m3", "Nom": "Carrefour Jacqueville", "Num_Coffre": 1.0, "X": 363524.1, "Y": 588364.0, "Affectatio": "Précollecte", "Num_Circu": "CDSM_500 - AMPLIROLL/Tt - NOUVEAU", "Amenagemen": "Pas Plateforme", "Statut": "actif", "Time": "31/10/2023", "Quartier": null }, "geometry": { "type": "Point", "coordinates": [ -4.231349465537759, 5.321747487854504 ] } },
{ "type": "Feature", "properties": { "fid": 1729.0, "Cod": "Son-3", "Commune": "Songon", "Type_Capac": "20m3", "Nom": "SAPH TRCI (Songon)", "Num_Coffre": 1.0, "X": 370048.4, "Y": 590886.2, "Affectatio": "Précollecte", "Num_Circu": "CDSM_500 - AMPLIROLL/Tt - NOUVEAU", "Amenagemen": "Pas de Plateforme", "Statut": "actif", "Time": "28/11/2023", "Quartier": null }, "geometry": { "type": "Point", "coordinates": [ -4.172826603064902, 5.344656433673193 ] } },
{ "type": "Feature", "properties": { "fid": 1730.0, "Cod": "Son-1", "Commune": "Songon", "Type_Capac": "20m3", "Nom": "Abadjin Kouté village", "Num_Coffre": 1.0, "X": 372474.1, "Y": 589209.6, "Affectatio": "Précollecte", "Num_Circu": "CDSM_500 - AMPLIROLL/Tt - NOUVEAU", "Amenagemen": "Pas Plateforme", "Statut": "actif", "Time": "28/11/2023", "Quartier": null }, "geometry": { "type": "Point", "coordinates": [ -4.154452684477703, 5.324229908765389 ] } },
{ "type": "Feature", "properties": { "fid": 1731.0, "Cod": "Att-57", "Commune": "Attécoubé", "Type_Capac": "5m3", "Nom": "10ieme Arrondissement", "Num_Coffre": 2.0, "X": 385355.5, "Y": 591185.2, "Affectatio": "Collecte", "Num_Circu": "CSDM_109,CSDM_122", "Amenagemen": "Pas de Plateforme", "Statut": "actif", "Time": "10/04/2024", "Quartier": "Mosquée" }, "geometry": { "type": "Point", "coordinates": [ -4.034699251542945, 5.347609372984236 ] } },
{ "type": "Feature", "properties": { "fid": 1732.0, "Cod": "Son-9", "Commune": "Songon", "Type_Capac": "20m3", "Nom": "La poste", "Num_Coffre": 3.0, "X": 361170.8, "Y": 588544.3, "Affectatio": "Précollecte", "Num_Circu": "CDSM_500 - AMPLIROLL/Tt - NOUVEAU", "Amenagemen": "Pas Plateforme", "Statut": "actif", "Time": "31/10/2023", "Quartier": null }, "geometry": { "type": "Point", "coordinates": [ -4.252892343253792, 5.323317122962226 ] } },
{ "type": "Feature", "properties": { "fid": 1733.0, "Cod": "Son-8", "Commune": "Songon", "Type_Capac": "20m3", "Nom": "Harriste", "Num_Coffre": 1.0, "X": 361064.4, "Y": 588069.8, "Affectatio": "Précollecte", "Num_Circu": "CDSM_500 - AMPLIROLL/Tt - NOUVEAU", "Amenagemen": "Pas Plateforme", "Statut": "actif", "Time": "31/10/2023", "Quartier": null }, "geometry": { "type": "Point", "coordinates": [ -4.253843725518861, 5.319023624622311 ] } },
{ "type": "Feature", "properties": { "fid": 1734.0, "Cod": "Son-7", "Commune": "Songon", "Type_Capac": "20m3", "Nom": "M'brathé", "Num_Coffre": 0.0, "X": 360610.3, "Y": 587471.8, "Affectatio": "Précollecte", "Num_Circu": "CDSM_500 - AMPLIROLL/Tt - NOUVEAU", "Amenagemen": "Pas Plateforme", "Statut": "Supprimé", "Time": "31/10/2023", "Quartier": null }, "geometry": { "type": "Point", "coordinates": [ -4.257930168827375, 5.313606763153444 ] } },
{ "type": "Feature", "properties": { "fid": 1735.0, "Cod": "Son-5", "Commune": "Songon", "Type_Capac": "20m3", "Nom": "Attié 2", "Num_Coffre": 1.0, "X": 361403.00000000006, "Y": 588933.1, "Affectatio": "Précollecte", "Num_Circu": "CDSM_500 - AMPLIROLL/Tt - NOUVEAU", "Amenagemen": "Plateforme pour 1 coffre", "Statut": "actif", "Time": "11/11/2023", "Quartier": null }, "geometry": { "type": "Point", "coordinates": [ -4.250804254319332, 5.326837828337326 ] } },
{ "type": "Feature", "properties": { "fid": 1736.0, "Cod": "Son-13", "Commune": "Songon", "Type_Capac": "20m3", "Nom": "Antenne", "Num_Coffre": 2.0, "X": 373554.4, "Y": 590114.6, "Affectatio": "Précollecte", "Num_Circu": "CDSM_500 - AMPLIROLL/Tt - NOUVEAU", "Amenagemen": "Pas Plateforme", "Statut": "actif", "Time": "28/11/2023", "Quartier": null }, "geometry": { "type": "Point", "coordinates": [ -4.141175987137573, 5.337737182674099 ] } },
{ "type": "Feature", "properties": { "fid": 1737.0, "Cod": "Son-12", "Commune": "Songon", "Type_Capac": "20m3", "Nom": "Songon Dagbé (Cimétière)", "Num_Coffre": 1.0, "X": 363731.3, "Y": 587846.1, "Affectatio": "Précollecte", "Num_Circu": "CDSM_500 - AMPLIROLL/Tt - NOUVEAU", "Amenagemen": "Pas Plateforme", "Statut": "actif", "Time": "31/10/2023", "Quartier": null }, "geometry": { "type": "Point", "coordinates": [ -4.229775686789599, 5.317048854679387 ] } },
{ "type": "Feature", "properties": { "fid": 1738.0, "Cod": "Son-11", "Commune": "Songon", "Type_Capac": "20m3", "Nom": "Songon Té", "Num_Coffre": 1.0, "X": 361588.8, "Y": 586620.1, "Affectatio": "Précollecte", "Num_Circu": "CDSM_500 - AMPLIROLL/Tt - NOUVEAU", "Amenagemen": "Plateforme pour 1 coffre", "Statut": "actif", "Time": "31/10/2023", "Quartier": null }, "geometry": { "type": "Point", "coordinates": [ -4.249085559431836, 5.305921605070115 ] } },
{ "type": "Feature", "properties": { "fid": 1739.0, "Cod": "Son-10", "Commune": "Songon", "Type_Capac": "20m3", "Nom": "Marché Agban", "Num_Coffre": 1.0, "X": 361611.2, "Y": 588767.0, "Affectatio": "Précollecte", "Num_Circu": "CDSM_500 - AMPLIROLL/Tt - NOUVEAU", "Amenagemen": "Pas Plateforme", "Statut": "actif", "Time": "31/10/2023", "Quartier": null }, "geometry": { "type": "Point", "coordinates": [ -4.248922569212238, 5.325339372972938 ] } },
{ "type": "Feature", "properties": { "fid": 1740.0, "Cod": "Son-28", "Commune": "Songon", "Type_Capac": "5m3", "Nom": "Godoumé (1 et 2)", "Num_Coffre": 2.0, "X": 368519.1, "Y": 586738.2, "Affectatio": "Collecte", "Num_Circu": "CDSM_PC", "Amenagemen": "Pas de Plateforme", "Statut": "actif", "Time": "28/11/2023", "Quartier": null }, "geometry": { "type": "Point", "coordinates": [ -4.18655474035979, 5.307112991462899 ] } },
{ "type": "Feature", "properties": { "fid": 1741.0, "Cod": "Son-23", "Commune": "Songon", "Type_Capac": "5m3", "Nom": "SAPH Ayowahi", "Num_Coffre": 1.0, "X": 368436.6, "Y": 592514.1, "Affectatio": "Collecte", "Num_Circu": "CDSM_PC", "Amenagemen": "Pas de Plateforme", "Statut": "actif", "Time": "31/10/2023", "Quartier": null }, "geometry": { "type": "Point", "coordinates": [ -4.187399562842891, 5.359352113665718 ] } },
{ "type": "Feature", "properties": { "fid": 1742.0, "Cod": "Son-19", "Commune": "Songon", "Type_Capac": "5m3", "Nom": "Abadjin Doumé Eglise", "Num_Coffre": 1.0, "X": 372771.9, "Y": 587003.4, "Affectatio": "Collecte", "Num_Circu": "CDSM_101", "Amenagemen": "Pas de Plateforme", "Statut": "actif", "Time": "01/12/2023", "Quartier": null }, "geometry": { "type": "Point", "coordinates": [ -4.148184913313942, 5.309584146652241 ] } },
{ "type": "Feature", "properties": { "fid": 1743.0, "Cod": "Son-16", "Commune": "Songon", "Type_Capac": "5m3", "Nom": "Institut Pasteur", "Num_Coffre": 1.0, "X": 373000.3, "Y": 588277.7, "Affectatio": "Collecte", "Num_Circu": "CDSM_PC", "Amenagemen": "Pas de Plateforme", "Statut": "actif", "Time": "31/10/2023", "Quartier": null }, "geometry": { "type": "Point", "coordinates": [ -4.146145281089363, 5.321113651273902 ] } },
{ "type": "Feature", "properties": { "fid": 1744.0, "Cod": "Att-26", "Commune": "Attécoubé", "Type_Capac": "5m3", "Nom": "Station Shell Mossikro", "Num_Coffre": 1.0, "X": 384006.0, "Y": 590433.5, "Affectatio": "Collecte", "Num_Circu": "CDSM_110, CDSM_122", "Amenagemen": "Pas de Plateforme", "Statut": "actif", "Time": "23/01/2024", "Quartier": "Santé III" }, "geometry": { "type": "Point", "coordinates": [ -4.046865959885474, 5.3407895753227 ] } },
{ "type": "Feature", "properties": { "fid": 1745.0, "Cod": "Att-25", "Commune": "Attécoubé", "Type_Capac": "5m3", "Nom": "Jean Paul II", "Num_Coffre": 1.0, "X": 384602.3, "Y": 589521.1, "Affectatio": "Collecte", "Num_Circu": "CDSM_110, CDSM_122", "Amenagemen": "Pas de Plateforme", "Statut": "actif", "Time": "31/10/2023", "Quartier": "Santé Village" }, "geometry": { "type": "Point", "coordinates": [ -4.04147093086932, 5.332546046097693 ] } },
{ "type": "Feature", "properties": { "fid": 1746.0, "Cod": "Att-24", "Commune": "Attécoubé", "Type_Capac": "5m3", "Nom": "Carrefour Santé", "Num_Coffre": 1.0, "X": 384887.7, "Y": 589421.1, "Affectatio": "Collecte", "Num_Circu": "CDSM_110, CDSM_122", "Amenagemen": "Pas de Plateforme", "Statut": "actif", "Time": "31/10/2023", "Quartier": "Santé Village" }, "geometry": { "type": "Point", "coordinates": [ -4.038893945558472, 5.331645898844665 ] } },
{ "type": "Feature", "properties": { "fid": 1747.0, "Cod": "Att-22", "Commune": "Attécoubé", "Type_Capac": "20m3", "Nom": "Agban village", "Num_Coffre": 2.0, "X": 385678.8, "Y": 592527.4, "Affectatio": "EcoEburnie", "Num_Circu": "CDSM_505 - AMPLIROLL - ATTECOUBE – EEB", "Amenagemen": "Plateforme pour 1 coffre", "Statut": "actif", "Time": "03/04/2024", "Quartier": "Abidjan Agban" }, "geometry": { "type": "Point", "coordinates": [ -4.031802051714007, 5.359754549388266 ] } },
{ "type": "Feature", "properties": { "fid": 1748.0, "Cod": "Att-38", "Commune": "Attécoubé", "Type_Capac": "20m3", "Nom": "Pharmacie Rehoboth", "Num_Coffre": 1.0, "X": 385189.9, "Y": 591626.6, "Affectatio": "Précollecte", "Num_Circu": "CDSM_500 - AMPLIROLL/Tt - NOUVEAU", "Amenagemen": "Plateforme pour 1 coffre", "Statut": "actif", "Time": "08/12/2023", "Quartier": "Gbébouto" }, "geometry": { "type": "Point", "coordinates": [ -4.036200390476966, 5.351599328287581 ] } },
{ "type": "Feature", "properties": { "fid": 1749.0, "Cod": "Att-37", "Commune": "Attécoubé", "Type_Capac": "20m3", "Nom": "Plantation 2", "Num_Coffre": 1.0, "X": 384535.9, "Y": 588841.2, "Affectatio": "EcoEburnie", "Num_Circu": "CDSM_505 - AMPLIROLL - ATTECOUBE – EEB", "Amenagemen": "Pas de Plateforme", "Statut": "actif", "Time": "31/10/2023", "Quartier": "Akélié" }, "geometry": { "type": "Point", "coordinates": [ -4.042059761915167, 5.326395319401265 ] } },
{ "type": "Feature", "properties": { "fid": 1750.0, "Cod": "Att-36", "Commune": "Attécoubé", "Type_Capac": "5m3", "Nom": "Pharmacie Agban", "Num_Coffre": 0.0, "X": 385881.9, "Y": 592413.1, "Affectatio": "Collecte", "Num_Circu": "CDSM_111", "Amenagemen": "Pas de Plateforme", "Statut": "Supprimé", "Time": "22/05/2024", "Quartier": "Abidjan Agban" }, "geometry": { "type": "Point", "coordinates": [ -4.029967448257809, 5.358723787962258 ] } },
{ "type": "Feature", "properties": { "fid": 1751.0, "Cod": "Att-31", "Commune": "Attécoubé", "Type_Capac": "5m3", "Nom": "Banco marché", "Num_Coffre": 0.0, "X": 383741.4, "Y": 592360.5, "Affectatio": "Collecte", "Num_Circu": "CDSM_107, CDSM_110, CDSM_122", "Amenagemen": "Pas de Plateforme", "Statut": "Supprimé", "Time": "22/05/2024", "Quartier": "Agban Attié" }, "geometry": { "type": "Point", "coordinates": [ -4.049283443913265, 5.35821520931056 ] } },
{ "type": "Feature", "properties": { "fid": 1752.0, "Cod": "Att-46", "Commune": "Attécoubé", "Type_Capac": "5m3", "Nom": "Carrefour tchapalodrôme", "Num_Coffre": 1.0, "X": 385142.6, "Y": 590912.8, "Affectatio": "Collecte", "Num_Circu": "CDSM_109, CDSM_122", "Amenagemen": "Pas de Plateforme", "Statut": "actif", "Time": "13/11/2023", "Quartier": "La Paix" }, "geometry": { "type": "Point", "coordinates": [ -4.036616377506997, 5.345142261160706 ] } },
{ "type": "Feature", "properties": { "fid": 1753.0, "Cod": "Att-45", "Commune": "Attécoubé", "Type_Capac": "5m3", "Nom": "Pont Marine", "Num_Coffre": 1.0, "X": 384809.5, "Y": 591112.5, "Affectatio": "Collecte", "Num_Circu": "CSDM_109,CSDM_122", "Amenagemen": "Pas de Plateforme", "Statut": "actif", "Time": "22/01/2024", "Quartier": "Marine" }, "geometry": { "type": "Point", "coordinates": [ -4.039625399699738, 5.346943467000809 ] } },
{ "type": "Feature", "properties": { "fid": 1754.0, "Cod": "Att-43", "Commune": "Attécoubé", "Type_Capac": "20m3", "Nom": "Marché mangue", "Num_Coffre": 0.0, "X": 384860.3, "Y": 592673.1, "Affectatio": "EcoEburnie", "Num_Circu": "CDSM_505 - AMPLIROLL - ATTECOUBE – EEB", "Amenagemen": "Pas de Plateforme", "Statut": "Supprimé", "Time": "20/12/2023", "Quartier": "Forêt Classée du Banco" }, "geometry": { "type": "Point", "coordinates": [ -4.039190803845752, 5.361059909799054 ] } },
{ "type": "Feature", "properties": { "fid": 1755.0, "Cod": "Att-39", "Commune": "Attécoubé", "Type_Capac": "5m3", "Nom": "Mossikro en bas d'étage", "Num_Coffre": 1.0, "X": 383137.2, "Y": 590539.9, "Affectatio": "Collecte", "Num_Circu": "CDSM_110, CDSM_122", "Amenagemen": "Pas de Plateforme", "Statut": "actif", "Time": "17/10/2023", "Quartier": "Banco Nord" }, "geometry": { "type": "Point", "coordinates": [ -4.054707780142533, 5.341738545591303 ] } },
{ "type": "Feature", "properties": { "fid": 1756.0, "Cod": "Att-56", "Commune": "Attécoubé", "Type_Capac": "5m3", "Nom": "Base Navale", "Num_Coffre": 1.0, "X": 385267.9, "Y": 587515.2, "Affectatio": "Collecte", "Num_Circu": "CSDM_110,CSDM_122", "Amenagemen": "Pas de Plateforme", "Statut": "actif", "Time": "08/12/2023", "Quartier": "Abobodoumé" }, "geometry": { "type": "Point", "coordinates": [ -4.035434164739675, 5.314412733117917 ] } },
{ "type": "Feature", "properties": { "fid": 1757.0, "Cod": "Att-54", "Commune": "Attécoubé", "Type_Capac": "20m3", "Nom": "Djené Ecaré", "Num_Coffre": 2.0, "X": 384193.3, "Y": 591175.4, "Affectatio": "Précollecte", "Num_Circu": "CDSM_500 - AMPLIROLL/Tt - NOUVEAU", "Amenagemen": "Pas de Plateforme", "Statut": "actif", "Time": "12/12/2023", "Quartier": "Djéné-Ecaré" }, "geometry": { "type": "Point", "coordinates": [ -4.045586544584995, 5.348560307601102 ] } },
{ "type": "Feature", "properties": { "fid": 1758.0, "Cod": "Att-49", "Commune": "Attécoubé", "Type_Capac": "5m3", "Nom": "Résidence du Maire Bvd HKB", "Num_Coffre": 0.0, "X": 385364.2, "Y": 591567.5, "Affectatio": "Collecte", "Num_Circu": "CDSM_109", "Amenagemen": "Pas de Plateforme", "Statut": "Supprimé", "Time": "22/05/2024", "Quartier": "Saint Joseph" }, "geometry": { "type": "Point", "coordinates": [ -4.034626548848506, 5.351067424013179 ] } },
{ "type": "Feature", "properties": { "fid": 1759.0, "Cod": "Att-48", "Commune": "Attécoubé", "Type_Capac": "5m3", "Nom": "Boulangerie Rue Espoir", "Num_Coffre": 0.0, "X": 385059.00000000006, "Y": 591398.7, "Affectatio": "Collecte", "Num_Circu": "CDSM_109, CDSM_122", "Amenagemen": "Pas de Plateforme", "Statut": "Supprimé", "Time": "25/04/2024", "Quartier": "Gbébouto" }, "geometry": { "type": "Point", "coordinates": [ -4.037378204005249, 5.349535967225149 ] } },
{ "type": "Feature", "properties": { "fid": 1760.0, "Cod": "Att-7", "Commune": "Attécoubé", "Type_Capac": "20m3", "Nom": "Rue des soeurs", "Num_Coffre": 1.0, "X": 385277.1, "Y": 587792.7, "Affectatio": "Précollecte", "Num_Circu": "CDSM_500 - AMPLIROLL/Tt - NOUVEAU", "Amenagemen": "Plateforme pour 1 coffre", "Statut": "actif", "Time": "12/12/2023", "Quartier": "Lackman" }, "geometry": { "type": "Point", "coordinates": [ -4.035355338324661, 5.31692287301725 ] } },
{ "type": "Feature", "properties": { "fid": 1761.0, "Cod": "Att-6", "Commune": "Attécoubé", "Type_Capac": "20m3", "Nom": "Gare lagunaire", "Num_Coffre": 1.0, "X": 385230.5, "Y": 587023.4, "Affectatio": "EcoEburnie", "Num_Circu": "CDSM_505 - AMPLIROLL - ATTECOUBE – EEB", "Amenagemen": "Pas de Plateforme", "Statut": "actif", "Time": "12/12/2023", "Quartier": "Abobodoumé" }, "geometry": { "type": "Point", "coordinates": [ -4.035764226548318, 5.309963812597294 ] } },
{ "type": "Feature", "properties": { "fid": 1762.0, "Cod": "Att-5", "Commune": "Attécoubé", "Type_Capac": "20m3", "Nom": "Marché poisson", "Num_Coffre": 1.0, "X": 384877.6, "Y": 586780.9, "Affectatio": "Précollecte", "Num_Circu": "CDSM_500 - AMPLIROLL/Tt - NOUVEAU", "Amenagemen": "Plateforme pour 1 coffre", "Statut": "actif", "Time": "12/12/2023", "Quartier": "Abobodoumé" }, "geometry": { "type": "Point", "coordinates": [ -4.038945029653803, 5.307765041790502 ] } },
{ "type": "Feature", "properties": { "fid": 1763.0, "Cod": "Att-4", "Commune": "Attécoubé", "Type_Capac": "20m3", "Nom": "Cimétière Abobo Doumé", "Num_Coffre": 2.0, "X": 384545.5, "Y": 586803.9, "Affectatio": "Précollecte", "Num_Circu": "CDSM_500 - AMPLIROLL/Tt - NOUVEAU", "Amenagemen": "Pas de Plateforme", "Statut": "actif", "Time": "12/12/2023", "Quartier": "Abobodoumé" }, "geometry": { "type": "Point", "coordinates": [ -4.04194214651987, 5.307968030982237 ] } },
{ "type": "Feature", "properties": { "fid": 1764.0, "Cod": "Att-11", "Commune": "Attécoubé", "Type_Capac": "20m3", "Nom": "Pinasse (Débarcadère)", "Num_Coffre": 1.0, "X": 384450.9, "Y": 590272.4, "Affectatio": "Précollecte", "Num_Circu": "CDSM_500 - AMPLIROLL/Tt - NOUVEAU", "Amenagemen": "Pas de Plateforme", "Statut": "actif", "Time": "31/10/2023", "Quartier": "Santé III" }, "geometry": { "type": "Point", "coordinates": [ -4.042848648407031, 5.339339254246135 ] } },
{ "type": "Feature", "properties": { "fid": 1765.0, "Cod": "Att-10", "Commune": "Attécoubé", "Type_Capac": "20m3", "Nom": "Marché de Nuit", "Num_Coffre": 1.0, "X": 385087.5, "Y": 588849.0, "Affectatio": "Précollecte", "Num_Circu": "CDSM_500 - AMPLIROLL/Tt - NOUVEAU", "Amenagemen": "Plateforme pour 1 coffre", "Statut": "actif", "Time": "12/12/2023", "Quartier": "Locodjoro" }, "geometry": { "type": "Point", "coordinates": [ -4.037082261341486, 5.326474274973655 ] } },
{ "type": "Feature", "properties": { "fid": 1766.0, "Cod": "Att-9", "Commune": "Attécoubé", "Type_Capac": "20m3", "Nom": "Lackman", "Num_Coffre": 1.0, "X": 385374.3, "Y": 588212.0, "Affectatio": "Précollecte", "Num_Circu": "CDSM_500 - AMPLIROLL/Tt - NOUVEAU", "Amenagemen": "Plateforme pour 1 coffre", "Statut": "actif", "Time": "12/12/2023", "Quartier": "Lackman" }, "geometry": { "type": "Point", "coordinates": [ -4.034484554458688, 5.320716933689397 ] } },
{ "type": "Feature", "properties": { "fid": 1767.0, "Cod": "Att-8", "Commune": "Attécoubé", "Type_Capac": "20m3", "Nom": "Caca sport", "Num_Coffre": 2.0, "X": 384808.99999999994, "Y": 588170.8, "Affectatio": "Précollecte", "Num_Circu": "CDSM_500 - AMPLIROLL/Tt - NOUVEAU", "Amenagemen": "Plateforme pour 2 coffres", "Statut": "actif", "Time": "12/12/2023", "Quartier": "Lackman" }, "geometry": { "type": "Point", "coordinates": [ -4.039585133299597, 5.320335695454117 ] } },
{ "type": "Feature", "properties": { "fid": 1768.0, "Cod": "Att-17", "Commune": "Attécoubé", "Type_Capac": "20m3", "Nom": "Nouvelle gare", "Num_Coffre": 1.0, "X": 385495.9, "Y": 590526.9, "Affectatio": "Précollecte", "Num_Circu": "CDSM_500 - AMPLIROLL/Tt - NOUVEAU", "Amenagemen": "Pas de Plateforme", "Statut": "actif", "Time": "12/12/2023", "Quartier": "Bidjan-Té" }, "geometry": { "type": "Point", "coordinates": [ -4.033422259448558, 5.341657156630919 ] } },
{ "type": "Feature", "properties": { "fid": 1769.0, "Cod": "Att-16", "Commune": "Attécoubé", "Type_Capac": "20m3", "Nom": "La Paix", "Num_Coffre": 0.0, "X": 385057.5, "Y": 590800.3, "Affectatio": "EcoEburnie", "Num_Circu": "CDSM_505 - AMPLIROLL - ATTECOUBE – EEB", "Amenagemen": "Pas de Plateforme", "Statut": "Supprimé", "Time": "12/12/2023", "Quartier": "La Paix" }, "geometry": { "type": "Point", "coordinates": [ -4.03738262847375, 5.344123397031817 ] } },
{ "type": "Feature", "properties": { "fid": 1770.0, "Cod": "Att-15", "Commune": "Attécoubé", "Type_Capac": "20m3", "Nom": "Banco espoir", "Num_Coffre": 2.0, "X": 384840.2, "Y": 591240.6, "Affectatio": "EcoEburnie", "Num_Circu": "CDSM_505 - AMPLIROLL - ATTECOUBE – EEB", "Amenagemen": "Plateforme pour 1 coffre", "Statut": "actif", "Time": "22/01/2024", "Quartier": "Gbébouto" }, "geometry": { "type": "Point", "coordinates": [ -4.039350309318835, 5.348102604390627 ] } },
{ "type": "Feature", "properties": { "fid": 1771.0, "Cod": "Att-12", "Commune": "Attécoubé", "Type_Capac": "20m3", "Nom": "Safari", "Num_Coffre": 1.0, "X": 383816.0, "Y": 590378.9, "Affectatio": "EcoEburnie", "Num_Circu": "CDSM_505 - AMPLIROLL - ATTECOUBE – EEB", "Amenagemen": "Pas de Plateforme", "Statut": "actif", "Time": "13/11/2023", "Quartier": "Santé III" }, "geometry": { "type": "Point", "coordinates": [ -4.048579709227924, 5.340292792802582 ] } },
{ "type": "Feature", "properties": { "fid": 1772.0, "Cod": "Att-21", "Commune": "Attécoubé", "Type_Capac": "20m3", "Nom": "Arrêt 15", "Num_Coffre": 2.0, "X": 385597.3, "Y": 591655.6, "Affectatio": "EcoEburnie", "Num_Circu": "CDSM_505 - AMPLIROLL - ATTECOUBE – EEB", "Amenagemen": "Pas de Plateforme", "Statut": "actif", "Time": "12/12/2023", "Quartier": "Saint Joseph" }, "geometry": { "type": "Point", "coordinates": [ -4.032524311019619, 5.351867839833458 ] } },
{ "type": "Feature", "properties": { "fid": 1773.0, "Cod": "Att-20", "Commune": "Attécoubé", "Type_Capac": "20m3", "Nom": "Terminus 04", "Num_Coffre": 1.0, "X": 385347.3, "Y": 590700.4, "Affectatio": "EcoEburnie", "Num_Circu": "CDSM_505 - AMPLIROLL - ATTECOUBE – EEB", "Amenagemen": "Pas de Plateforme", "Statut": "actif", "Time": "12/12/2023", "Quartier": "La Paix" }, "geometry": { "type": "Point", "coordinates": [ -4.034765889112755, 5.343224212659842 ] } },
{ "type": "Feature", "properties": { "fid": 1774.0, "Cod": "Att-19", "Commune": "Attécoubé", "Type_Capac": "20m3", "Nom": "Marché central", "Num_Coffre": 1.0, "X": 385489.8, "Y": 591322.8, "Affectatio": "EcoEburnie", "Num_Circu": "CDSM_505 - AMPLIROLL - ATTECOUBE – EEB", "Amenagemen": "Pas de Plateforme", "Statut": "actif", "Time": "16/01/2025", "Quartier": "Ecoles" }, "geometry": { "type": "Point", "coordinates": [ -4.033440848111296, 5.348762607254449 ] } },
{ "type": "Feature", "properties": { "fid": 1775.0, "Cod": "Att-18", "Commune": "Attécoubé", "Type_Capac": "5m3", "Nom": "Hôtel des Jeunes", "Num_Coffre": 2.0, "X": 385642.6, "Y": 591275.2, "Affectatio": "Collecte", "Num_Circu": "CSDM_PC", "Amenagemen": "Plateforme pour 1 coffre", "Statut": "actif", "Time": "16/10/2023", "Quartier": "Bidjan-Té" }, "geometry": { "type": "Point", "coordinates": [ -4.032280028743318, 5.348391312795443 ] } },
{ "type": "Feature", "properties": { "fid": 1776.0, "Cod": "Adj-24", "Commune": "Adjamé", "Type_Capac": "5m3", "Nom": "Cuvette SOTRA", "Num_Coffre": 0.0, "X": 386055.00000000006, "Y": 592390.2, "Affectatio": "Collecte", "Num_Circu": "CDSM_111, CDSM_112, CDSM_123, CDSM_124", "Amenagemen": "Pas de Plateforme", "Statut": "Supprimé", "Time": "09/04/2024", "Quartier": "Mairie 2" }, "geometry": { "type": "Point", "coordinates": [ -4.028404966521814, 5.358519283048719 ] } },
{ "type": "Feature", "properties": { "fid": 1777.0, "Cod": "Adj-23", "Commune": "Adjamé", "Type_Capac": "20m3", "Nom": "Gbêgba", "Num_Coffre": 2.0, "X": 386780.9, "Y": 591987.3, "Affectatio": "Précollecte", "Num_Circu": "CDSM_500 - AMPLIROLL/Tt - NOUVEAU", "Amenagemen": "Pas de Plateforme", "Statut": "actif", "Time": "31/10/2023", "Quartier": "Mirador" }, "geometry": { "type": "Point", "coordinates": [ -4.021848045075867, 5.354885994738605 ] } },
{ "type": "Feature", "properties": { "fid": 1778.0, "Cod": "Adj-22", "Commune": "Adjamé", "Type_Capac": "20m3", "Nom": "Habitat extension", "Num_Coffre": 2.0, "X": 386762.2, "Y": 592443.6, "Affectatio": "Précollecte", "Num_Circu": "CDSM_500 - AMPLIROLL/Tt - NOUVEAU", "Amenagemen": "Plateforme pour 2 coffres", "Statut": "actif", "Time": "29/12/2024", "Quartier": "Ebrié" }, "geometry": { "type": "Point", "coordinates": [ -4.022023660263148, 5.359012980039159 ] } },
{ "type": "Feature", "properties": { "fid": 1779.0, "Cod": "Adj-20", "Commune": "Adjamé", "Type_Capac": "20m3", "Nom": "220 PIT", "Num_Coffre": 2.0, "X": 387601.7, "Y": 591759.1, "Affectatio": "Précollecte", "Num_Circu": "CDSM_500 - AMPLIROLL/Tt - NOUVEAU", "Amenagemen": "Plateforme pour 2 coffres", "Statut": "actif", "Time": "31/10/2023", "Quartier": "220 Logements" }, "geometry": { "type": "Point", "coordinates": [ -4.014437380329455, 5.352834217382695 ] } },
{ "type": "Feature", "properties": { "fid": 1780.0, "Cod": "Adj-31", "Commune": "Adjamé", "Type_Capac": "5m3", "Nom": "Mirador", "Num_Coffre": 0.0, "X": 386505.6, "Y": 592182.2, "Affectatio": "Collecte", "Num_Circu": "CDSM_123, CDSM_124", "Amenagemen": "Pas de Plateforme", "Statut": "Supprimé", "Time": "22/05/2024", "Quartier": "Habitat extension" }, "geometry": { "type": "Point", "coordinates": [ -4.024335405544901, 5.356644728249777 ] } },
{ "type": "Feature", "properties": { "fid": 1781.0, "Cod": "Adj-28", "Commune": "Adjamé", "Type_Capac": "5m3", "Nom": "William jacob 2", "Num_Coffre": 2.0, "X": 385992.6, "Y": 591885.4, "Affectatio": "Collecte", "Num_Circu": "CDSM_111, CDSM_122", "Amenagemen": "Pas de Plateforme", "Statut": "actif", "Time": "10/01/2025", "Quartier": "Délégation" }, "geometry": { "type": "Point", "coordinates": [ -4.028960455370867, 5.35395239355076 ] } },
{ "type": "Feature", "properties": { "fid": 1782.0, "Cod": "Adj-27", "Commune": "Adjamé", "Type_Capac": "5m3", "Nom": "William jacob 1", "Num_Coffre": 2.0, "X": 386124.8, "Y": 591903.0, "Affectatio": "Collecte", "Num_Circu": "CDSM_111_CDSM_122", "Amenagemen": "Pas de Plateforme", "Statut": "actif", "Time": "10/01/2025", "Quartier": "Délégation" }, "geometry": { "type": "Point", "coordinates": [ -4.027767695617523, 5.354113589350227 ] } },
{ "type": "Feature", "properties": { "fid": 1783.0, "Cod": "Adj-25", "Commune": "Adjamé", "Type_Capac": "5m3", "Nom": "Entrée nouvelle gare - Wrangler", "Num_Coffre": 0.0, "X": 385912.99999999994, "Y": 592903.0, "Affectatio": "Collecte", "Num_Circu": "CDSM_111, CDSM_112", "Amenagemen": "Pas de Plateforme", "Statut": "Supprimé", "Time": "07/12/2023", "Quartier": "Adjamé Nord" }, "geometry": { "type": "Point", "coordinates": [ -4.029694211532663, 5.363155430271209 ] } },
{ "type": "Feature", "properties": { "fid": 1784.0, "Cod": "Adj-35", "Commune": "Adjamé", "Type_Capac": "5m3", "Nom": "Terminus 14", "Num_Coffre": 1.0, "X": 386566.9, "Y": 593358.2, "Affectatio": "Collecte", "Num_Circu": "CDSM_111, CDSM_123", "Amenagemen": "Pas de Plateforme", "Statut": "actif", "Time": "17/05/2024", "Quartier": "Williamsville 1" }, "geometry": { "type": "Point", "coordinates": [ -4.023799929585593, 5.367282651871641 ] } },
{ "type": "Feature", "properties": { "fid": 1785.0, "Cod": "Adj-34", "Commune": "Adjamé", "Type_Capac": "4m3", "Nom": "CRS", "Num_Coffre": 1.0, "X": 386321.1, "Y": 593556.0, "Affectatio": "Collecte", "Num_Circu": "CDSM_111, CDSM_123", "Amenagemen": "Pas de Plateforme", "Statut": "actif", "Time": "17/05/2024", "Quartier": "Williamsville 2" }, "geometry": { "type": "Point", "coordinates": [ -4.026021168429446, 5.369068043951858 ] } },
{ "type": "Feature", "properties": { "fid": 1786.0, "Cod": "Adj-33", "Commune": "Adjamé", "Type_Capac": "5m3", "Nom": "Arret Carine couture", "Num_Coffre": 1.0, "X": 387421.3, "Y": 592260.6, "Affectatio": "Collecte", "Num_Circu": "CDSM_111, CDSM_123", "Amenagemen": "Pas de Plateforme", "Statut": "actif", "Time": "31/10/2023", "Quartier": "Ebrié" }, "geometry": { "type": "Point", "coordinates": [ -4.016072876941554, 5.357367632684225 ] } },
{ "type": "Feature", "properties": { "fid": 1787.0, "Cod": "Adj-32", "Commune": "Adjamé", "Type_Capac": "5m3", "Nom": "Eglise methodiste", "Num_Coffre": 1.0, "X": 387313.5, "Y": 592045.0, "Affectatio": "Collecte", "Num_Circu": "CDSM_111", "Amenagemen": "Pas de Plateforme", "Statut": "actif", "Time": "08/12/2023", "Quartier": "Ebrié" }, "geometry": { "type": "Point", "coordinates": [ -4.017042491802929, 5.355415896430344 ] } },
{ "type": "Feature", "properties": { "fid": 1788.0, "Cod": "Att-3", "Commune": "Attécoubé", "Type_Capac": "20m3", "Nom": "Nadia", "Num_Coffre": 1.0, "X": 384327.5, "Y": 587253.9, "Affectatio": "Précollecte", "Num_Circu": "CDSM_500 - AMPLIROLL/Tt - NOUVEAU", "Amenagemen": "Plateforme pour 1 coffre", "Statut": "actif", "Time": "12/12/2023", "Quartier": "Jérusalem Résidentiel" }, "geometry": { "type": "Point", "coordinates": [ -4.043916157777369, 5.312034971164155 ] } },
{ "type": "Feature", "properties": { "fid": 1789.0, "Cod": "Att-1", "Commune": "Attécoubé", "Type_Capac": "20m3", "Nom": "Marché Locodjoro", "Num_Coffre": 2.0, "X": 384524.2, "Y": 589155.3, "Affectatio": "Précollecte", "Num_Circu": "CDSM_500 - AMPLIROLL/Tt - NOUVEAU", "Amenagemen": "Plateforme pour 2 coffres", "Statut": "actif", "Time": "12/12/2023", "Quartier": "Jean Paul 2" }, "geometry": { "type": "Point", "coordinates": [ -4.042170129951462, 5.329236182749599 ] } },
{ "type": "Feature", "properties": { "fid": 1790.0, "Cod": "Adj-37", "Commune": "Adjamé", "Type_Capac": "20m3", "Nom": "Université d'Abobo-Adjamé", "Num_Coffre": 1.0, "X": 387094.5, "Y": 596375.4, "Affectatio": "Précollecte", "Num_Circu": "CDSM_500 - AMPLIROLL/Tt - NOUVEAU", "Amenagemen": "Pas de Plateforme", "Statut": "actif", "Time": "31/01/2023", "Quartier": "Pailliet" }, "geometry": { "type": "Point", "coordinates": [ -4.019083964419267, 5.39458140915908 ] } },
{ "type": "Feature", "properties": { "fid": 1791.0, "Cod": "Adj-36", "Commune": "Adjamé", "Type_Capac": "5m3", "Nom": "Williamsville mosquée", "Num_Coffre": 2.0, "X": 386943.9, "Y": 593160.1, "Affectatio": "Collecte", "Num_Circu": "CDSM_111, CDSM_123", "Amenagemen": "Pas de Plateforme", "Statut": "actif", "Time": "15/01/2025", "Quartier": "Williamsville 1" }, "geometry": { "type": "Point", "coordinates": [ -4.020394672400901, 5.36549651324167 ] } },
{ "type": "Feature", "properties": { "fid": 1792.0, "Cod": "Adj-5", "Commune": "Adjamé", "Type_Capac": "20m3", "Nom": "Nouveau marché mouton", "Num_Coffre": 3.0, "X": 385826.1, "Y": 593418.1, "Affectatio": "Précollecte", "Num_Circu": "CDSM_500 - AMPLIROLL/Tt - NOUVEAU", "Amenagemen": "Pas de Plateforme", "Statut": "actif", "Time": "31/10/2023", "Quartier": "Sodeci - Filtisac" }, "geometry": { "type": "Point", "coordinates": [ -4.030486261870083, 5.36781321277495 ] } },
{ "type": "Feature", "properties": { "fid": 1793.0, "Cod": "Adj-4", "Commune": "Adjamé", "Type_Capac": "20m3", "Nom": "Bracodi", "Num_Coffre": 2.0, "X": 386049.7, "Y": 592782.8, "Affectatio": "Précollecte", "Num_Circu": "CDSM_500 - AMPLIROLL/Tt - NOUVEAU", "Amenagemen": "Pas de Plateforme", "Statut": "actif", "Time": "31/10/2023", "Quartier": "Adjamé Nord" }, "geometry": { "type": "Point", "coordinates": [ -4.028808026275723, 5.362968854319493 ] } },
{ "type": "Feature", "properties": { "fid": 1794.0, "Cod": "Adj-3", "Commune": "Adjamé", "Type_Capac": "20m3", "Nom": "Hôtel patient", "Num_Coffre": 0.0, "X": 386163.5, "Y": 592529.7, "Affectatio": "Précollecte", "Num_Circu": "CDSM_500 - AMPLIROLL/Tt - NOUVEAU", "Amenagemen": "Plateforme pour 2 coffres", "Statut": "Supprimé", "Time": "08/04/2024", "Quartier": "Adjamé Nord" }, "geometry": { "type": "Point", "coordinates": [ -4.027427920444175, 5.359782712936095 ] } },
{ "type": "Feature", "properties": { "fid": 1795.0, "Cod": "Adj-1", "Commune": "Adjamé", "Type_Capac": "20m3", "Nom": "Sodeci château", "Num_Coffre": 1.0, "X": 385579.6, "Y": 591843.8, "Affectatio": "Précollecte", "Num_Circu": "CDSM_500 - AMPLIROLL/Tt - NOUVEAU", "Amenagemen": "Pas de Plateforme", "Statut": "actif", "Time": "22/01/2024", "Quartier": "Délégation" }, "geometry": { "type": "Point", "coordinates": [ -4.032686898081813, 5.353569847964205 ] } },
{ "type": "Feature", "properties": { "fid": 1796.0, "Cod": "Adj-10", "Commune": "Adjamé", "Type_Capac": "20m3", "Nom": "HMA", "Num_Coffre": 1.0, "X": 388218.3, "Y": 594807.6, "Affectatio": "Précollecte", "Num_Circu": "CDSM_500 - AMPLIROLL/Tt - NOUVEAU", "Amenagemen": "Pas de Plateforme", "Statut": "actif", "Time": "31/10/2023", "Quartier": "Pailliet" }, "geometry": { "type": "Point", "coordinates": [ -4.008918230206768, 5.380417414466693 ] } },
{ "type": "Feature", "properties": { "fid": 1797.0, "Cod": "Adj-9", "Commune": "Adjamé", "Type_Capac": "20m3", "Nom": "Marché Kady sylla", "Num_Coffre": 3.0, "X": 386280.1, "Y": 594712.4, "Affectatio": "Précollecte", "Num_Circu": "CDSM_500 - AMPLIROLL/Tt - NOUVEAU", "Amenagemen": "Plateforme pour 4 coffres", "Statut": "actif", "Time": "31/10/2023", "Quartier": "Sodeci - Filtisac" }, "geometry": { "type": "Point", "coordinates": [ -4.02640869051528, 5.379527124650951 ] } },
{ "type": "Feature", "properties": { "fid": 1798.0, "Cod": "Adj-8", "Commune": "Adjamé", "Type_Capac": "20m3", "Nom": "Sonitra", "Num_Coffre": 2.0, "X": 386937.4, "Y": 594913.6, "Affectatio": "Précollecte", "Num_Circu": "CDSM_500 - AMPLIROLL/Tt - NOUVEAU", "Amenagemen": "Plateforme pour 2 coffres", "Statut": "actif", "Time": "03/04/2024", "Quartier": "Pailliet" }, "geometry": { "type": "Point", "coordinates": [ -4.020479729198039, 5.381356950270445 ] } },
{ "type": "Feature", "properties": { "fid": 1799.0, "Cod": "Adj-7", "Commune": "Adjamé", "Type_Capac": "20m3", "Nom": "Garage cissé", "Num_Coffre": 1.0, "X": 386491.6, "Y": 594688.9, "Affectatio": "Précollecte", "Num_Circu": "CDSM_500 - AMPLIROLL/Tt - NOUVEAU", "Amenagemen": "Pas de Plateforme", "Statut": "actif", "Time": "12/12/2023", "Quartier": "Pailliet" }, "geometry": { "type": "Point", "coordinates": [ -4.024499593179358, 5.379317776056053 ] } },
{ "type": "Feature", "properties": { "fid": 1800.0, "Cod": "Adj-14", "Commune": "Adjamé", "Type_Capac": "20m3", "Nom": "Ancien marché mouton", "Num_Coffre": 2.0, "X": 386157.3, "Y": 593207.6, "Affectatio": "Précollecte", "Num_Circu": "CDSM_500 - AMPLIROLL/Tt - NOUVEAU", "Amenagemen": "Pas de Plateforme", "Statut": "actif", "Time": "03/04/2024", "Quartier": "Williamsville 1" }, "geometry": { "type": "Point", "coordinates": [ -4.027494127157049, 5.365914262357872 ] } },
{ "type": "Feature", "properties": { "fid": 1801.0, "Cod": "Adj-13", "Commune": "Adjamé", "Type_Capac": "20m3", "Nom": "Quai agban tracteur", "Num_Coffre": 5.0, "X": 387174.2, "Y": 592711.2, "Affectatio": "Précollecte", "Num_Circu": "CDSM_500 - AMPLIROLL/Tt - NOUVEAU", "Amenagemen": "Plateforme pour 8 coffres + Clôture", "Statut": "actif", "Time": "31/10/2023", "Quartier": "Williamsville 1" }, "geometry": { "type": "Point", "coordinates": [ -4.018309577412267, 5.361439641900282 ] } },
{ "type": "Feature", "properties": { "fid": 1802.0, "Cod": "Adj-12", "Commune": "Adjamé", "Type_Capac": "20m3", "Nom": "Cimétière williamsville", "Num_Coffre": 1.0, "X": 387526.0, "Y": 593436.4, "Affectatio": "Précollecte", "Num_Circu": "CDSM_500 - AMPLIROLL/Tt - NOUVEAU", "Amenagemen": "Pas de Plateforme", "Statut": "actif", "Time": "31/10/2023", "Quartier": "Williamsville 2" }, "geometry": { "type": "Point", "coordinates": [ -4.015145585778768, 5.368004418047598 ] } },
{ "type": "Feature", "properties": { "fid": 1803.0, "Cod": "Adj-11", "Commune": "Adjamé", "Type_Capac": "20m3", "Nom": "Paillet Cocoteraie", "Num_Coffre": 1.0, "X": 387683.2, "Y": 594695.0, "Affectatio": "Précollecte", "Num_Circu": "CDSM_500 - AMPLIROLL/Tt - NOUVEAU", "Amenagemen": "Pas de Plateforme", "Statut": "actif", "Time": "08/12/2023", "Quartier": "Pailliet" }, "geometry": { "type": "Point", "coordinates": [ -4.013745734345028, 5.379390925746547 ] } },
{ "type": "Feature", "properties": { "fid": 1804.0, "Cod": "Adj-19", "Commune": "Adjamé", "Type_Capac": "20m3", "Nom": "Quai marché gouro", "Num_Coffre": 10.0, "X": 386615.5, "Y": 591462.1, "Affectatio": "Précollecte", "Num_Circu": "CDSM_500 - AMPLIROLL/Tt - NOUVEAU", "Amenagemen": "Plateforme pour 12 coffres + Clôture ouvert devant", "Statut": "actif", "Time": "31/10/2023", "Quartier": "Mirador" }, "geometry": { "type": "Point", "coordinates": [ -4.023332788257346, 5.350133031468548 ] } },
{ "type": "Feature", "properties": { "fid": 1805.0, "Cod": "Adj-18", "Commune": "Adjamé", "Type_Capac": "20m3", "Nom": "Marché rosalie", "Num_Coffre": 1.0, "X": 386560.4, "Y": 591421.4, "Affectatio": "Précollecte", "Num_Circu": "CDSM_500 - AMPLIROLL/Tt - NOUVEAU", "Amenagemen": "Plateforme pour 1 coffre", "Statut": "actif", "Time": "31/10/2023", "Quartier": "Mirador" }, "geometry": { "type": "Point", "coordinates": [ -4.023829418328243, 5.349764066843306 ] } },
{ "type": "Feature", "properties": { "fid": 1806.0, "Cod": "Adj-17", "Commune": "Adjamé", "Type_Capac": "20m3", "Nom": "Marché madeleine", "Num_Coffre": 2.0, "X": 386630.3, "Y": 591403.0, "Affectatio": "Précollecte", "Num_Circu": "CDSM_500 - AMPLIROLL/Tt - NOUVEAU", "Amenagemen": "Plateforme pour 2 coffres", "Statut": "actif", "Time": "31/10/2023", "Quartier": "Mirador" }, "geometry": { "type": "Point", "coordinates": [ -4.023198339626517, 5.349598690664753 ] } },
{ "type": "Feature", "properties": { "fid": 1807.0, "Cod": "Adj-16", "Commune": "Adjamé", "Type_Capac": "20m3", "Nom": "Marché feuille", "Num_Coffre": 1.0, "X": 385919.8, "Y": 590413.0, "Affectatio": "Précollecte", "Num_Circu": "CDSM_500 - AMPLIROLL/Tt - NOUVEAU", "Amenagemen": "Plateforme pour 2 coffres", "Statut": "actif", "Time": "31/10/2023", "Quartier": "Mairie 1" }, "geometry": { "type": "Point", "coordinates": [ -4.029595177055098, 5.340633351561667 ] } },
{ "type": "Feature", "properties": { "fid": 1808.0, "Cod": "Yop-52", "Commune": "Yopougon", "Type_Capac": "20m3", "Nom": "AJPS", "Num_Coffre": 0.0, "X": 380134.4, "Y": 593266.6, "Affectatio": "Précollecte", "Num_Circu": "CDSM_500 - AMPLIROLL/Tt - NOUVEAU", "Amenagemen": "Pas de Plateforme", "Statut": "Supprimé", "Time": "18/09/2023", "Quartier": "Zone Industrielle" }, "geometry": { "type": "Point", "coordinates": [ -4.0818487184926, 5.366354124835691 ] } },
{ "type": "Feature", "properties": { "fid": 1809.0, "Cod": "Yop-44", "Commune": "Yopougon", "Type_Capac": "20m3", "Nom": "Schekina", "Num_Coffre": 0.0, "X": 380390.5, "Y": 589523.6, "Affectatio": "Précollecte", "Num_Circu": "CDSM_500 - AMPLIROLL/Tt - NOUVEAU", "Amenagemen": "Plateforme pour 1 coffre", "Statut": "Supprimé", "Time": "18/09/2023", "Quartier": "Yaosséhi" }, "geometry": { "type": "Point", "coordinates": [ -4.079478223650532, 5.332503121583675 ] } },
{ "type": "Feature", "properties": { "fid": 1810.0, "Cod": "Yop-69", "Commune": "Yopougon", "Type_Capac": "20m3", "Nom": "Yopougon Batim", "Num_Coffre": 1.0, "X": 378768.6, "Y": 593181.5, "Affectatio": "Précollecte", "Num_Circu": "CDSM_500 - AMPLIROLL/Tt - NOUVEAU", "Amenagemen": "Plateforme pour 1 coffre", "Statut": "actif", "Time": "15/02/2024", "Quartier": "Gesco Attié" }, "geometry": { "type": "Point", "coordinates": [ -4.094172881609189, 5.365562465442292 ] } },
{ "type": "Feature", "properties": { "fid": 1811.0, "Cod": "Yop-63", "Commune": "Yopougon", "Type_Capac": "20m3", "Nom": "Micao Extension", "Num_Coffre": 0.0, "X": 377898.5, "Y": 595662.9, "Affectatio": "Précollecte", "Num_Circu": "CDSM_500 - AMPLIROLL/Tt - NOUVEAU", "Amenagemen": "Pas de Plateforme", "Statut": "Supprimé", "Time": "18/09/2023", "Quartier": "Zone Industrielle" }, "geometry": { "type": "Point", "coordinates": [ -4.102065347130197, 5.38799220455671 ] } },
{ "type": "Feature", "properties": { "fid": 1812.0, "Cod": "Yop-72", "Commune": "Yopougon", "Type_Capac": "20m3", "Nom": "Manutention", "Num_Coffre": 0.0, "X": 377796.5, "Y": 592497.7, "Affectatio": "Précollecte", "Num_Circu": "CDSM_500 - AMPLIROLL/Tt - NOUVEAU", "Amenagemen": "Plateforme pour 1 coffre", "Statut": "Supprimé", "Time": "03/02/2023", "Quartier": "Gesco Attié" }, "geometry": { "type": "Point", "coordinates": [ -4.102934362345916, 5.359361842509729 ] } },
{ "type": "Feature", "properties": { "fid": 1813.0, "Cod": "Yop-71", "Commune": "Yopougon", "Type_Capac": "20m3", "Nom": "Marche Bédié", "Num_Coffre": 0.0, "X": 378035.7, "Y": 592750.3, "Affectatio": "Précollecte", "Num_Circu": "CDSM_500 - AMPLIROLL/Tt - NOUVEAU", "Amenagemen": "Pas de Plateforme", "Statut": "Supprimé", "Time": "18/09/2023", "Quartier": "Gesco Attié" }, "geometry": { "type": "Point", "coordinates": [ -4.100779850711465, 5.361650455800921 ] } },
{ "type": "Feature", "properties": { "fid": 1814.0, "Cod": "Yop-238", "Commune": "Yopougon", "Type_Capac": "5m3", "Nom": "Nouveau marché Camp Millitaire", "Num_Coffre": 1.0, "X": 382257.95183878054, "Y": 588801.50923228625, "Affectatio": "Collecte", "Num_Circu": "CDSM_102", "Amenagemen": "Pas de Plateforme", "Statut": "actif", "Time": "12/12/2023", "Quartier": "Yopougon Kouté" }, "geometry": { "type": "Point", "coordinates": [ -4.062615183731618, 5.326001184569972 ] } },
{ "type": "Feature", "properties": { "fid": 1815.0, "Cod": "Yop-221", "Commune": "Yopougon", "Type_Capac": "20m3", "Nom": "Cimetière Bonikro (Entrée Cimetière)", "Num_Coffre": 2.0, "X": 377500.41141220293, "Y": 591258.93738115742, "Affectatio": "Précollecte", "Num_Circu": "CDSM_500 - AMPLIROLL/Tt - NOUVEAU", "Amenagemen": "Pas de Plateforme", "Statut": "actif", "Time": "12/12/2023", "Quartier": "Cimetière" }, "geometry": { "type": "Point", "coordinates": [ -4.105586211975258, 5.34815262679949 ] } },
{ "type": "Feature", "properties": { "fid": 1816.0, "Cod": "Yop-237", "Commune": "Yopougon", "Type_Capac": "5m3", "Nom": "Antenne CitelCom (Saguidiba)", "Num_Coffre": 1.0, "X": 381072.76109064202, "Y": 589664.7030507772, "Affectatio": "Collecte", "Num_Circu": "CDSM_103", "Amenagemen": "Pas de Plateforme", "Statut": "actif", "Time": "17/05/2024", "Quartier": "Yopougon Kouté" }, "geometry": { "type": "Point", "coordinates": [ -4.073323753795242, 5.333790164521365 ] } },
{ "type": "Feature", "properties": { "fid": 1817.0, "Cod": null, "Commune": "Kossihouen", "Type_Capac": "12m3", "Nom": "Marché Kossihouen", "Num_Coffre": 1.0, "X": 357024.8, "Y": 610530.7, "Affectatio": "EcoEburnie", "Num_Circu": null, "Amenagemen": null, "Statut": "actif", "Time": "31/10/2023", "Quartier": null }, "geometry": { "type": "Point", "coordinates": [ -4.290724848076295, 5.522089135153234 ] } },
{ "type": "Feature", "properties": { "fid": 1818.0, "Cod": "Yop-267", "Commune": "Yopougon", "Type_Capac": "4m3", "Nom": "Vakabadougou", "Num_Coffre": 1.0, "X": 379257.78480055591, "Y": 597126.38810736616, "Affectatio": "Collecte", "Num_Circu": "CDSM_PC", "Amenagemen": "Pas de Aménagement", "Statut": "actif", "Time": "26/03/2024", "Quartier": "Zone Industrielle" }, "geometry": { "type": "Point", "coordinates": [ -4.088921589061369, 5.407908065785985 ] } },
{ "type": "Feature", "properties": { "fid": 1819.0, "Cod": "Att-61", "Commune": "Attécoubé", "Type_Capac": "20m3", "Nom": "Cité Addoha", "Num_Coffre": 1.0, "X": 385309.34039028344, "Y": 588289.49126600497, "Affectatio": "EcoEburnie", "Num_Circu": "CDSM_500 - AMPLIROLL/Tt - NOUVEAU", "Amenagemen": "Plateforme pour 1 coffre", "Statut": "actif", "Time": "03/04/2024", "Quartier": "Lackman" }, "geometry": { "type": "Point", "coordinates": [ -4.0349703131261, 5.321376581808034 ] } },
{ "type": "Feature", "properties": { "fid": 1820.0, "Cod": "Att-60", "Commune": "Attécoubé", "Type_Capac": "20m3", "Nom": "Hôtel des jeunes (Sylla et Frère)", "Num_Coffre": 3.0, "X": 385689.03632281825, "Y": 591465.78083589836, "Affectatio": "Précollecte", "Num_Circu": "CDSM_500 - AMPLIROLL/Tt - NOUVEAU", "Amenagemen": "Bitime", "Statut": "actif", "Time": "08/12/2023", "Quartier": "Bidjan-Té" }, "geometry": { "type": "Point", "coordinates": [ -4.031030704219456, 5.347801934513938 ] } },
{ "type": "Feature", "properties": { "fid": 1821.0, "Cod": "Yop-222", "Commune": "Yopougon", "Type_Capac": "20m3", "Nom": "Gesco Terre Rouge", "Num_Coffre": 1.0, "X": 376143.08118046762, "Y": 593982.20955490018, "Affectatio": "Précollecte", "Num_Circu": "CDSM_500 - AMPLIROLL/Tt - NOUVEAU", "Amenagemen": "Pas de Plateforme", "Statut": "actif", "Time": "20/12/2023", "Quartier": "Zone Industrielle" }, "geometry": { "type": "Point", "coordinates": [ -4.117879650473186, 5.372761840000445 ] } },
{ "type": "Feature", "properties": { "fid": 1822.0, "Cod": "Yop-230", "Commune": "Yopougon", "Type_Capac": "4m3", "Nom": "Pont Académie", "Num_Coffre": 1.0, "X": 377239.59969577787, "Y": 588586.47461673361, "Affectatio": "Collecte", "Num_Circu": "CDSM_108", "Amenagemen": "Pas de Plateforme", "Statut": "actif", "Time": "14/12/2023", "Quartier": "Niangon Sud Ouest" }, "geometry": { "type": "Point", "coordinates": [ -4.107896425823562, 5.323976419524554 ] } },
{ "type": "Feature", "properties": { "fid": 1823.0, "Cod": "Yop-96", "Commune": "Yopougon", "Type_Capac": "4m3", "Nom": "Carrefour Mandjo", "Num_Coffre": 1.0, "X": 380006.04801677051, "Y": 588591.82320265321, "Affectatio": "Collecte", "Num_Circu": "CDSM_105", "Amenagemen": "Pas de Plateforme", "Statut": "actif", "Time": "12/10/2023", "Quartier": "Yopougon Kouté" }, "geometry": { "type": "Point", "coordinates": [ -4.082932732277037, 5.324069191024528 ] } },
{ "type": "Feature", "properties": { "fid": 1824.0, "Cod": "Yop-232", "Commune": "Yopougon", "Type_Capac": "4m3", "Nom": "Rond Point Petit Toit Rouge", "Num_Coffre": 1.0, "X": 381945.43266159343, "Y": 588562.02070206252, "Affectatio": "Collecte", "Num_Circu": "CDSM_105", "Amenagemen": "Pas de Plateforme", "Statut": "actif", "Time": "06/12/2023", "Quartier": "Yopougon Kouté" }, "geometry": { "type": "Point", "coordinates": [ -4.065431591746325, 5.323830147918902 ] } },
{ "type": "Feature", "properties": { "fid": 1825.0, "Cod": "Yop-231", "Commune": "Yopougon", "Type_Capac": "5m3", "Nom": "MTN Sable", "Num_Coffre": 1.0, "X": 382065.89546323504, "Y": 591870.44556705444, "Affectatio": "Collecte", "Num_Circu": "CDSM_102", "Amenagemen": "Pas de Plateforme", "Statut": "actif", "Time": "08/12/2023", "Quartier": "Yopougon Attié" }, "geometry": { "type": "Point", "coordinates": [ -4.064396163448691, 5.353756584227084 ] } },
{ "type": "Feature", "properties": { "fid": 1826.0, "Cod": "Att-59", "Commune": "Attécoubé", "Type_Capac": "5m3", "Nom": "Boulangerie", "Num_Coffre": 1.0, "X": 383617.9174189886, "Y": 590372.97949507704, "Affectatio": "Collecte", "Num_Circu": "CDSM_110", "Amenagemen": "Pas de Plateforme", "Statut": "actif", "Time": "13/11/2023", "Quartier": "Santé III" }, "geometry": { "type": "Point", "coordinates": [ -4.050367142773613, 5.34023618717022 ] } },