{
"type": "FeatureCollection",
"name": "sitecoffresdat2",
"crs": { "type": "name", "properties": { "name": "urn:ogc:def:crs:OGC:1.3:CRS84" } },
"features": [
{ "type": "Feature", "properties": { "fid": 0, "Cod": "Adj-1", "Commune": "Adjamé", "Quartier": "Délégation", "Type_Capac": "20m3", "Nom": "Sodeci château", "X": -4.0326869, "Y": 5.35356985, "Affectatio": "Précollecte", "Num_Circu": "CDSM_500 - AMPLIROLL/Tt - NOUVEAU", "Amenagemen": "Pas de Plateforme", "Statut": "actif", "time": "22/01/2024", "Num_Coffre": 1, "dateTravaux": null }, "geometry": { "type": "Point", "coordinates": [ -4.0326869, 5.35356985 ] } },
{ "type": "Feature", "properties": { "fid": 1, "Cod": "Adj-2", "Commune": "Adjamé", "Quartier": "Délégation", "Type_Capac": "20m3", "Nom": "Agban pharmacie", "X": -4.03141396, "Y": 5.35650079, "Affectatio": "Précollecte", "Num_Circu": "CDSM_500 - AMPLIROLL/Tt - NOUVEAU", "Amenagemen": "Pas de Plateforme", "Statut": "supprimé", "time": null, "Num_Coffre": 0, "dateTravaux": null }, "geometry": { "type": "Point", "coordinates": [ -4.03141396, 5.35650079 ] } },
{ "type": "Feature", "properties": { "fid": 2, "Cod": "Adj-3", "Commune": "Adjamé", "Quartier": "Adjamé Nord", "Type_Capac": "20m3", "Nom": "Hôtel patient", "X": -4.02742792, "Y": 5.35978271, "Affectatio": "Précollecte", "Num_Circu": "CDSM_500 - AMPLIROLL/Tt - NOUVEAU", "Amenagemen": "Plateforme pour 2 coffres", "Statut": "supprimé", "time": "08/04/2024", "Num_Coffre": 0, "dateTravaux": 01-06-2025 }, "geometry": { "type": "Point", "coordinates": [ -4.02742792, 5.35978271 ] } },
{ "type": "Feature", "properties": { "fid": 3, "Cod": "Adj-4", "Commune": "Adjamé", "Quartier": "Adjamé Nord", "Type_Capac": "20m3", "Nom": "Bracodi", "X": -4.02880803, "Y": 5.36296885, "Affectatio": "Précollecte", "Num_Circu": "CDSM_500 - AMPLIROLL/Tt - NOUVEAU", "Amenagemen": "Pas de Plateforme", "Statut": "actif", "time": "31/10/2023", "Num_Coffre": 2, "dateTravaux": "10-03-2025" }, "geometry": { "type": "Point", "coordinates": [ -4.02880803, 5.36296885 ] } },
{ "type": "Feature", "properties": { "fid": 4, "Cod": "Adj-5", "Commune": "Adjamé", "Quartier": "Sodeci - Filtisac", "Type_Capac": "20m3", "Nom": "Nouveau marché mouton", "X": -4.03048626, "Y": 5.36781321, "Affectatio": "Précollecte", "Num_Circu": "CDSM_500 - AMPLIROLL/Tt - NOUVEAU", "Amenagemen": "Pas de Plateforme", "Statut": "actif", "time": "31/10/2023", "Num_Coffre": 3, "dateTravaux": null }, "geometry": { "type": "Point", "coordinates": [ -4.03048626, 5.36781321 ] } },
{ "type": "Feature", "properties": { "fid": 5, "Cod": "Adj-6", "Commune": "Adjamé", "Quartier": "Sodeci - Filtisac", "Type_Capac": "20m3", "Nom": "Sodeci Macaci", "X": -4.02831406, "Y": 5.37428682, "Affectatio": "Précollecte", "Num_Circu": "CDSM_500 - AMPLIROLL/Tt - NOUVEAU", "Amenagemen": "Pas de Plateforme", "Statut": "supprimé", "time": null, "Num_Coffre": 0, "dateTravaux": 09-06-2025 }, "geometry": { "type": "Point", "coordinates": [ -4.02831406, 5.37428682 ] } },
{ "type": "Feature", "properties": { "fid": 6, "Cod": "Adj-7", "Commune": "Adjamé", "Quartier": "Pailliet", "Type_Capac": "20m3", "Nom": "Garage cissé", "X": -4.02449959, "Y": 5.37931778, "Affectatio": "Précollecte", "Num_Circu": "CDSM_500 - AMPLIROLL/Tt - NOUVEAU", "Amenagemen": "Pas de Plateforme", "Statut": "actif", "time": "12/12/2023", "Num_Coffre": 2, "dateTravaux": "15-03-2025" }, "geometry": { "type": "Point", "coordinates": [ -4.02449959, 5.37931778 ] } },
{ "type": "Feature", "properties": { "fid": 7, "Cod": "Adj-8", "Commune": "Adjamé", "Quartier": "Pailliet", "Type_Capac": "20m3", "Nom": "Sonitra", "X": -4.02047973, "Y": 5.38135695, "Affectatio": "Précollecte", "Num_Circu": "CDSM_500 - AMPLIROLL/Tt - NOUVEAU", "Amenagemen": "Plateforme pour 2 coffres", "Statut": "actif", "time": "03/04/2024", "Num_Coffre": 2, "dateTravaux": "15-06-2025" }, "geometry": { "type": "Point", "coordinates": [ -4.02047973, 5.38135695 ] } },
{ "type": "Feature", "properties": { "fid": 8, "Cod": "Adj-9", "Commune": "Adjamé", "Quartier": "Sodeci - Filtisac", "Type_Capac": "20m3", "Nom": "Marché Kady sylla", "X": -4.02640869, "Y": 5.37952712, "Affectatio": "Précollecte", "Num_Circu": "CDSM_500 - AMPLIROLL/Tt - NOUVEAU", "Amenagemen": "Plateforme pour 4 coffres", "Statut": "actif", "time": "31/10/2023", "Num_Coffre": 3, "dateTravaux": "15-06-2025" }, "geometry": { "type": "Point", "coordinates": [ -4.02640869, 5.37952712 ] } },
{ "type": "Feature", "properties": { "fid": 9, "Cod": "Adj-10", "Commune": "Adjamé", "Quartier": "Pailliet", "Type_Capac": "20m3", "Nom": "HMA", "X": -4.00891823, "Y": 5.38041741, "Affectatio": "Précollecte", "Num_Circu": "CDSM_500 - AMPLIROLL/Tt - NOUVEAU", "Amenagemen": "Pas de Plateforme", "Statut": "actif", "time": "31/10/2023", "Num_Coffre": 1, "dateTravaux": "15-05-2025" }, "geometry": { "type": "Point", "coordinates": [ -4.00891823, 5.38041741 ] } },
{ "type": "Feature", "properties": { "fid": 10, "Cod": "Adj-11", "Commune": "Adjamé", "Quartier": "Pailliet", "Type_Capac": "20m3", "Nom": "Paillet Cocoteraie", "X": -4.01374573, "Y": 5.37939093, "Affectatio": "Précollecte", "Num_Circu": "CDSM_500 - AMPLIROLL/Tt - NOUVEAU", "Amenagemen": "Pas de Plateforme", "Statut": "actif", "time": "08/12/2023", "Num_Coffre": 1, "dateTravaux": "15-04-2025" }, "geometry": { "type": "Point", "coordinates": [ -4.01374573, 5.37939093 ] } },
{ "type": "Feature", "properties": { "fid": 11, "Cod": "Adj-12", "Commune": "Adjamé", "Quartier": "Williamsville 2", "Type_Capac": "20m3", "Nom": "Cimétière williamsville", "X": -4.01514559, "Y": 5.36800442, "Affectatio": "Précollecte", "Num_Circu": "CDSM_500 - AMPLIROLL/Tt - NOUVEAU", "Amenagemen": "Pas de Plateforme", "Statut": "actif", "time": "31/10/2023", "Num_Coffre": 1, "dateTravaux": null }, "geometry": { "type": "Point", "coordinates": [ -4.01514559, 5.36800442 ] } },
{ "type": "Feature", "properties": { "fid": 12, "Cod": "Adj-13", "Commune": "Adjamé", "Quartier": "Williamsville 1", "Type_Capac": "20m3", "Nom": "Quai agban tracteur", "X": -4.01830958, "Y": 5.36143964, "Affectatio": "Précollecte", "Num_Circu": "CDSM_500 - AMPLIROLL/Tt - NOUVEAU", "Amenagemen": "Plateforme pour 8 coffres + Clôture", "Statut": "actif", "time": "31/10/2023", "Num_Coffre": 5, "dateTravaux": "16-06-2025" }, "geometry": { "type": "Point", "coordinates": [ -4.01830958, 5.36143964 ] } },
{ "type": "Feature", "properties": { "fid": 13, "Cod": "Adj-14", "Commune": "Adjamé", "Quartier": "Williamsville 1", "Type_Capac": "20m3", "Nom": "Ancien marché mouton", "X": -4.02749413, "Y": 5.36591426, "Affectatio": "Précollecte", "Num_Circu": "CDSM_500 - AMPLIROLL/Tt - NOUVEAU", "Amenagemen": "Pas de Plateforme", "Statut": "actif", "time": "03/04/2024", "Num_Coffre": 2, "dateTravaux": "06-03-2025" }, "geometry": { "type": "Point", "coordinates": [ -4.02749413, 5.36591426 ] } },
{ "type": "Feature", "properties": { "fid": 14, "Cod": "Adj-15", "Commune": "Adjamé", "Quartier": "Mairie 2", "Type_Capac": "20m3", "Nom": "Forum", "X": -4.0261836, "Y": 5.34580562, "Affectatio": "Précollecte", "Num_Circu": "CDSM_500 - AMPLIROLL/Tt - NOUVEAU", "Amenagemen": "Pas de Plateforme", "Statut": "supprimé", "time": null, "Num_Coffre": 0, "dateTravaux": null }, "geometry": { "type": "Point", "coordinates": [ -4.0261836, 5.34580562 ] } },
{ "type": "Feature", "properties": { "fid": 15, "Cod": "Adj-16", "Commune": "Adjamé", "Quartier": "Mairie 1", "Type_Capac": "20m3", "Nom": "Marché feuille", "X": -4.02959518, "Y": 5.34063335, "Affectatio": "Précollecte", "Num_Circu": "CDSM_500 - AMPLIROLL/Tt - NOUVEAU", "Amenagemen": "Plateforme pour 2 coffres", "Statut": "actif", "time": "31/10/2023", "Num_Coffre": 1, "dateTravaux": "13-03-2025" }, "geometry": { "type": "Point", "coordinates": [ -4.02959518, 5.34063335 ] } },
{ "type": "Feature", "properties": { "fid": 16, "Cod": "Adj-17", "Commune": "Adjamé", "Quartier": "Mirador", "Type_Capac": "20m3", "Nom": "Marché madeleine", "X": -4.02319834, "Y": 5.34959869, "Affectatio": "Précollecte", "Num_Circu": "CDSM_500 - AMPLIROLL/Tt - NOUVEAU", "Amenagemen": "Plateforme pour 2 coffres", "Statut": "actif", "time": "31/10/2023", "Num_Coffre": 2, "dateTravaux": "16-03-2025" }, "geometry": { "type": "Point", "coordinates": [ -4.02319834, 5.34959869 ] } },
{ "type": "Feature", "properties": { "fid": 17, "Cod": "Adj-18", "Commune": "Adjamé", "Quartier": "Mirador", "Type_Capac": "20m3", "Nom": "Marché rosalie", "X": -4.02382942, "Y": 5.34976407, "Affectatio": "Précollecte", "Num_Circu": "CDSM_500 - AMPLIROLL/Tt - NOUVEAU", "Amenagemen": "Plateforme pour 1 coffre", "Statut": "actif", "time": "31/10/2023", "Num_Coffre": 1, "dateTravaux": null }, "geometry": { "type": "Point", "coordinates": [ -4.02382942, 5.34976407 ] } },
{ "type": "Feature", "properties": { "fid": 18, "Cod": "Adj-19", "Commune": "Adjamé", "Quartier": "Mirador", "Type_Capac": "20m3", "Nom": "Quai marché gouro", "X": -4.02333279, "Y": 5.35013303, "Affectatio": "Précollecte", "Num_Circu": "CDSM_500 - AMPLIROLL/Tt - NOUVEAU", "Amenagemen": "Plateforme pour 12 coffres + Clôture ouvert devant", "Statut": "actif", "time": "31-10-2023", "Num_Coffre": 10, "dateTravaux": "16/03/2025" }, "geometry": { "type": "Point", "coordinates": [ -4.02333279, 5.35013303 ] } },
{ "type": "Feature", "properties": { "fid": 19, "Cod": "Adj-20", "Commune": "Adjamé", "Quartier": "220 Logements", "Type_Capac": "20m3", "Nom": "220 PIT", "X": -4.01443738, "Y": 5.35283422, "Affectatio": "Précollecte", "Num_Circu": "CDSM_500 - AMPLIROLL/Tt - NOUVEAU", "Amenagemen": "Plateforme pour 2 coffres", "Statut": "actif", "time": "31/10/2023", "Num_Coffre": 2, "dateTravaux": "16-03-2025" }, "geometry": { "type": "Point", "coordinates": [ -4.01443738, 5.35283422 ] } },
{ "type": "Feature", "properties": { "fid": 20, "Cod": "Adj-21", "Commune": "Adjamé", "Quartier": "Ebrié", "Type_Capac": "20m3", "Nom": "Carine couture", "X": -4.01501022, "Y": 5.3559873, "Affectatio": "Précollecte", "Num_Circu": "CDSM_500 - AMPLIROLL/Tt - NOUVEAU", "Amenagemen": "Pas de Plateforme", "Statut": "supprimé", "time": "18/09/2023", "Num_Coffre": 0, "dateTravaux": null }, "geometry": { "type": "Point", "coordinates": [ -4.01501022, 5.3559873 ] } },
{ "type": "Feature", "properties": { "fid": 21, "Cod": "Adj-22", "Commune": "Adjamé", "Quartier": "Ebrié", "Type_Capac": "20m3", "Nom": "Habitat extension", "X": -4.02202366, "Y": 5.35901298, "Affectatio": "Précollecte", "Num_Circu": "CDSM_500 - AMPLIROLL/Tt - NOUVEAU", "Amenagemen": "Plateforme pour 2 coffres", "Statut": "actif", "time": "29/12/2024", "Num_Coffre": 2, "dateTravaux": "14-03-2025" }, "geometry": { "type": "Point", "coordinates": [ -4.02202366, 5.35901298 ] } },
{ "type": "Feature", "properties": { "fid": 22, "Cod": "Adj-23", "Commune": "Adjamé", "Quartier": "Mirador", "Type_Capac": "20m3", "Nom": "Gbêgba", "X": -4.02184805, "Y": 5.35488599, "Affectatio": "Précollecte", "Num_Circu": "CDSM_500 - AMPLIROLL/Tt - NOUVEAU", "Amenagemen": "Pas de Plateforme", "Statut": "actif", "time": "31/10/2023", "Num_Coffre": 2, "dateTravaux": "15-03-2025" }, "geometry": { "type": "Point", "coordinates": [ -4.02184805, 5.35488599 ] } },
{ "type": "Feature", "properties": { "fid": 23, "Cod": "Adj-24", "Commune": "Adjamé", "Quartier": "Mairie 2", "Type_Capac": "5m3", "Nom": "Cuvette SOTRA", "X": -4.02840497, "Y": 5.35851928, "Affectatio": "EcoEburnie", "Num_Circu": "CDSM_111- CDSM_112- CDSM_123- CDSM_124", "Amenagemen": "Pas de Plateforme", "Statut": "supprimé", "time": "09/04/2024", "Num_Coffre": 0, "dateTravaux": null }, "geometry": { "type": "Point", "coordinates": [ -4.02840497, 5.35851928 ] } },
{ "type": "Feature", "properties": { "fid": 24, "Cod": "Adj-25", "Commune": "Adjamé", "Quartier": "Adjamé Nord", "Type_Capac": "5m3", "Nom": "Entrée nouvelle gare - Wrangler", "X": -4.02969421, "Y": 5.36315543, "Affectatio": "EcoEburnie", "Num_Circu": "CDSM_111- CDSM_112", "Amenagemen": "Pas de Plateforme", "Statut": "supprimé", "time": "07/12/2023", "Num_Coffre": 0, "dateTravaux": null }, "geometry": { "type": "Point", "coordinates": [ -4.02969421, 5.36315543 ] } },
{ "type": "Feature", "properties": { "fid": 25, "Cod": "Adj-26", "Commune": "Adjamé", "Quartier": "Indénié - Adjamé", "Type_Capac": "5m3", "Nom": "Rond point Marie Thérèse", "X": -4.0177078, "Y": 5.3478983, "Affectatio": "EcoEburnie", "Num_Circu": "CDSM_111- CDSM_124", "Amenagemen": "Pas de Plateforme", "Statut": "supprimé", "time": null, "Num_Coffre": 0, "dateTravaux": null }, "geometry": { "type": "Point", "coordinates": [ -4.0177078, 5.3478983 ] } },
{ "type": "Feature", "properties": { "fid": 26, "Cod": "Adj-27", "Commune": "Adjamé", "Quartier": "Délégation", "Type_Capac": "5m3", "Nom": "William jacob 1", "X": -4.0277677, "Y": 5.35411359, "Affectatio": "EcoEburnie", "Num_Circu": "CDSM_111_CDSM_122", "Amenagemen": "Pas de Plateforme", "Statut": "actif", "time": "10/01/2025", "Num_Coffre": 2, "dateTravaux": null }, "geometry": { "type": "Point", "coordinates": [ -4.0277677, 5.35411359 ] } },
{ "type": "Feature", "properties": { "fid": 495, "Cod": null, "Commune": "Kossihouen", "Quartier": null, "Type_Capac": "12m3", "Nom": "M'Brago", "X": -4.21956502, "Y": 5.53311852, "Affectatio": "EcoEburnie", "Num_Circu": null, "Amenagemen": "Pas de Plateforme", "Statut": "actif", "time": "31/10/2023", "Num_Coffre": 1, "dateTravaux": null }, "geometry": { "type": "Point", "coordinates": [ -4.21956502, 5.53311852 ] } }
]
}
