{
"type": "FeatureCollection",
"name": "sitecoffresdat2",
"crs": { "type": "name", "properties": { "name": "urn:ogc:def:crs:OGC:1.3:CRS84" } },
"features": [
{ "type": "Feature", "properties": { "fid": 0, "Cod": "Adj-1", "Commune": "Adjamé", "Quartier": "Délégation", "Type_Capac": "20m3", "Nom": "Sodeci château", "X": -4.0326869, "Y": 5.35356985, "Affectatio": "Précollecte", "Num_Circu": "CDSM_500 - AMPLIROLL/Tt - NOUVEAU", "Amenagemen": "Pas de Plateforme", "Statut": "actif", "time": "22/01/2024", "Num_Coffre": 1, "dateTravaux": null }, "geometry": { "type": "Point", "coordinates": [ -4.0326869, 5.35356985 ] } },
{ "type": "Feature", "properties": { "fid": 1, "Cod": "Adj-2", "Commune": "Adjamé", "Quartier": "Délégation", "Type_Capac": "20m3", "Nom": "Agban pharmacie", "X": -4.03141396, "Y": 5.35650079, "Affectatio": "Précollecte", "Num_Circu": "CDSM_500 - AMPLIROLL/Tt - NOUVEAU", "Amenagemen": "Pas de Plateforme", "Statut": "supprimé", "time": null, "Num_Coffre": 0, "dateTravaux": null }, "geometry": { "type": "Point", "coordinates": [ -4.03141396, 5.35650079 ] } },
{ "type": "Feature", "properties": { "fid": 2, "Cod": "Adj-3", "Commune": "Adjamé", "Quartier": "Adjamé Nord", "Type_Capac": "20m3", "Nom": "Hôtel patient", "X": -4.02742792, "Y": 5.35978271, "Affectatio": "Précollecte", "Num_Circu": "CDSM_500 - AMPLIROLL/Tt - NOUVEAU", "Amenagemen": "Plateforme pour 2 coffres", "Statut": "supprimé", "time": "08/04/2024", "Num_Coffre": 0, "dateTravaux": null }, "geometry": { "type": "Point", "coordinates": [ -4.02742792, 5.35978271 ] } },
{ "type": "Feature", "properties": { "fid": 3, "Cod": "Adj-4", "Commune": "Adjamé", "Quartier": "Adjamé Nord", "Type_Capac": "20m3", "Nom": "Bracodi", "X": -4.02880803, "Y": 5.36296885, "Affectatio": "Précollecte", "Num_Circu": "CDSM_500 - AMPLIROLL/Tt - NOUVEAU", "Amenagemen": "Pas de Plateforme", "Statut": "actif", "time": "31/10/2023", "Num_Coffre": 2, "dateTravaux": "10/03/2025" }, "geometry": { "type": "Point", "coordinates": [ -4.02880803, 5.36296885 ] } },
{ "type": "Feature", "properties": { "fid": 4, "Cod": "Adj-5", "Commune": "Adjamé", "Quartier": "Sodeci - Filtisac", "Type_Capac": "20m3", "Nom": "Nouveau marché mouton", "X": -4.03048626, "Y": 5.36781321, "Affectatio": "Précollecte", "Num_Circu": "CDSM_500 - AMPLIROLL/Tt - NOUVEAU", "Amenagemen": "Pas de Plateforme", "Statut": "actif", "time": "31/10/2023", "Num_Coffre": 3, "dateTravaux": null }, "geometry": { "type": "Point", "coordinates": [ -4.03048626, 5.36781321 ] } },
{ "type": "Feature", "properties": { "fid": 5, "Cod": "Adj-6", "Commune": "Adjamé", "Quartier": "Sodeci - Filtisac", "Type_Capac": "20m3", "Nom": "Sodeci Macaci", "X": -4.02831406, "Y": 5.37428682, "Affectatio": "Précollecte", "Num_Circu": "CDSM_500 - AMPLIROLL/Tt - NOUVEAU", "Amenagemen": "Pas de Plateforme", "Statut": "supprimé", "time": null, "Num_Coffre": 0, "dateTravaux": null }, "geometry": { "type": "Point", "coordinates": [ -4.02831406, 5.37428682 ] } },
{ "type": "Feature", "properties": { "fid": 6, "Cod": "Adj-7", "Commune": "Adjamé", "Quartier": "Pailliet", "Type_Capac": "20m3", "Nom": "Garage cissé", "X": -4.02449959, "Y": 5.37931778, "Affectatio": "Précollecte", "Num_Circu": "CDSM_500 - AMPLIROLL/Tt - NOUVEAU", "Amenagemen": "Pas de Plateforme", "Statut": "actif", "time": "12/12/2023", "Num_Coffre": 2, "dateTravaux": "15/03/2025" }, "geometry": { "type": "Point", "coordinates": [ -4.02449959, 5.37931778 ] } },
{ "type": "Feature", "properties": { "fid": 7, "Cod": "Adj-8", "Commune": "Adjamé", "Quartier": "Pailliet", "Type_Capac": "20m3", "Nom": "Sonitra", "X": -4.02047973, "Y": 5.38135695, "Affectatio": "Précollecte", "Num_Circu": "CDSM_500 - AMPLIROLL/Tt - NOUVEAU", "Amenagemen": "Plateforme pour 2 coffres", "Statut": "actif", "time": "03/04/2024", "Num_Coffre": 2, "dateTravaux": "15/03/2025" }, "geometry": { "type": "Point", "coordinates": [ -4.02047973, 5.38135695 ] } },
{ "type": "Feature", "properties": { "fid": 8, "Cod": "Adj-9", "Commune": "Adjamé", "Quartier": "Sodeci - Filtisac", "Type_Capac": "20m3", "Nom": "Marché Kady sylla", "X": -4.02640869, "Y": 5.37952712, "Affectatio": "Précollecte", "Num_Circu": "CDSM_500 - AMPLIROLL/Tt - NOUVEAU", "Amenagemen": "Plateforme pour 4 coffres", "Statut": "actif", "time": "31/10/2023", "Num_Coffre": 3, "dateTravaux": "15/03/2025" }, "geometry": { "type": "Point", "coordinates": [ -4.02640869, 5.37952712 ] } },
{ "type": "Feature", "properties": { "fid": 9, "Cod": "Adj-10", "Commune": "Adjamé", "Quartier": "Pailliet", "Type_Capac": "20m3", "Nom": "HMA", "X": -4.00891823, "Y": 5.38041741, "Affectatio": "Précollecte", "Num_Circu": "CDSM_500 - AMPLIROLL/Tt - NOUVEAU", "Amenagemen": "Pas de Plateforme", "Statut": "actif", "time": "31/10/2023", "Num_Coffre": 1, "dateTravaux": "15/03/2025" }, "geometry": { "type": "Point", "coordinates": [ -4.00891823, 5.38041741 ] } },
{ "type": "Feature", "properties": { "fid": 10, "Cod": "Adj-11", "Commune": "Adjamé", "Quartier": "Pailliet", "Type_Capac": "20m3", "Nom": "Paillet Cocoteraie", "X": -4.01374573, "Y": 5.37939093, "Affectatio": "Précollecte", "Num_Circu": "CDSM_500 - AMPLIROLL/Tt - NOUVEAU", "Amenagemen": "Pas de Plateforme", "Statut": "actif", "time": "08/12/2023", "Num_Coffre": 1, "dateTravaux": "15/03/2025" }, "geometry": { "type": "Point", "coordinates": [ -4.01374573, 5.37939093 ] } },
{ "type": "Feature", "properties": { "fid": 11, "Cod": "Adj-12", "Commune": "Adjamé", "Quartier": "Williamsville 2", "Type_Capac": "20m3", "Nom": "Cimétière williamsville", "X": -4.01514559, "Y": 5.36800442, "Affectatio": "Précollecte", "Num_Circu": "CDSM_500 - AMPLIROLL/Tt - NOUVEAU", "Amenagemen": "Pas de Plateforme", "Statut": "actif", "time": "31/10/2023", "Num_Coffre": 1, "dateTravaux": null }, "geometry": { "type": "Point", "coordinates": [ -4.01514559, 5.36800442 ] } },
{ "type": "Feature", "properties": { "fid": 12, "Cod": "Adj-13", "Commune": "Adjamé", "Quartier": "Williamsville 1", "Type_Capac": "20m3", "Nom": "Quai agban tracteur", "X": -4.01830958, "Y": 5.36143964, "Affectatio": "Précollecte", "Num_Circu": "CDSM_500 - AMPLIROLL/Tt - NOUVEAU", "Amenagemen": "Plateforme pour 8 coffres + Clôture", "Statut": "actif", "time": "31/10/2023", "Num_Coffre": 5, "dateTravaux": "16/03/2025" }, "geometry": { "type": "Point", "coordinates": [ -4.01830958, 5.36143964 ] } },
{ "type": "Feature", "properties": { "fid": 13, "Cod": "Adj-14", "Commune": "Adjamé", "Quartier": "Williamsville 1", "Type_Capac": "20m3", "Nom": "Ancien marché mouton", "X": -4.02749413, "Y": 5.36591426, "Affectatio": "Précollecte", "Num_Circu": "CDSM_500 - AMPLIROLL/Tt - NOUVEAU", "Amenagemen": "Pas de Plateforme", "Statut": "actif", "time": "03/04/2024", "Num_Coffre": 2, "dateTravaux": "06/03/2025" }, "geometry": { "type": "Point", "coordinates": [ -4.02749413, 5.36591426 ] } },
{ "type": "Feature", "properties": { "fid": 14, "Cod": "Adj-15", "Commune": "Adjamé", "Quartier": "Mairie 2", "Type_Capac": "20m3", "Nom": "Forum", "X": -4.0261836, "Y": 5.34580562, "Affectatio": "Précollecte", "Num_Circu": "CDSM_500 - AMPLIROLL/Tt - NOUVEAU", "Amenagemen": "Pas de Plateforme", "Statut": "supprimé", "time": null, "Num_Coffre": 0, "dateTravaux": null }, "geometry": { "type": "Point", "coordinates": [ -4.0261836, 5.34580562 ] } },
{ "type": "Feature", "properties": { "fid": 15, "Cod": "Adj-16", "Commune": "Adjamé", "Quartier": "Mairie 1", "Type_Capac": "20m3", "Nom": "Marché feuille", "X": -4.02959518, "Y": 5.34063335, "Affectatio": "Précollecte", "Num_Circu": "CDSM_500 - AMPLIROLL/Tt - NOUVEAU", "Amenagemen": "Plateforme pour 2 coffres", "Statut": "actif", "time": "31/10/2023", "Num_Coffre": 1, "dateTravaux": "13/03/2025" }, "geometry": { "type": "Point", "coordinates": [ -4.02959518, 5.34063335 ] } },
{ "type": "Feature", "properties": { "fid": 16, "Cod": "Adj-17", "Commune": "Adjamé", "Quartier": "Mirador", "Type_Capac": "20m3", "Nom": "Marché madeleine", "X": -4.02319834, "Y": 5.34959869, "Affectatio": "Précollecte", "Num_Circu": "CDSM_500 - AMPLIROLL/Tt - NOUVEAU", "Amenagemen": "Plateforme pour 2 coffres", "Statut": "actif", "time": "31/10/2023", "Num_Coffre": 2, "dateTravaux": "16/03/2025" }, "geometry": { "type": "Point", "coordinates": [ -4.02319834, 5.34959869 ] } },
{ "type": "Feature", "properties": { "fid": 17, "Cod": "Adj-18", "Commune": "Adjamé", "Quartier": "Mirador", "Type_Capac": "20m3", "Nom": "Marché rosalie", "X": -4.02382942, "Y": 5.34976407, "Affectatio": "Précollecte", "Num_Circu": "CDSM_500 - AMPLIROLL/Tt - NOUVEAU", "Amenagemen": "Plateforme pour 1 coffre", "Statut": "actif", "time": "31/10/2023", "Num_Coffre": 1, "dateTravaux": null }, "geometry": { "type": "Point", "coordinates": [ -4.02382942, 5.34976407 ] } },
{ "type": "Feature", "properties": { "fid": 18, "Cod": "Adj-19", "Commune": "Adjamé", "Quartier": "Mirador", "Type_Capac": "20m3", "Nom": "Quai marché gouro", "X": -4.02333279, "Y": 5.35013303, "Affectatio": "Précollecte", "Num_Circu": "CDSM_500 - AMPLIROLL/Tt - NOUVEAU", "Amenagemen": "Plateforme pour 12 coffres + Clôture ouvert devant", "Statut": "actif", "time": "31/10/2023", "Num_Coffre": 10, "dateTravaux": "16/03/2025" }, "geometry": { "type": "Point", "coordinates": [ -4.02333279, 5.35013303 ] } },
{ "type": "Feature", "properties": { "fid": 19, "Cod": "Adj-20", "Commune": "Adjamé", "Quartier": "220 Logements", "Type_Capac": "20m3", "Nom": "220 PIT", "X": -4.01443738, "Y": 5.35283422, "Affectatio": "Précollecte", "Num_Circu": "CDSM_500 - AMPLIROLL/Tt - NOUVEAU", "Amenagemen": "Plateforme pour 2 coffres", "Statut": "actif", "time": "31/10/2023", "Num_Coffre": 2, "dateTravaux": "16/03/2025" }, "geometry": { "type": "Point", "coordinates": [ -4.01443738, 5.35283422 ] } },
{ "type": "Feature", "properties": { "fid": 20, "Cod": "Adj-21", "Commune": "Adjamé", "Quartier": "Ebrié", "Type_Capac": "20m3", "Nom": "Carine couture", "X": -4.01501022, "Y": 5.3559873, "Affectatio": "Précollecte", "Num_Circu": "CDSM_500 - AMPLIROLL/Tt - NOUVEAU", "Amenagemen": "Pas de Plateforme", "Statut": "supprimé", "time": "18/09/2023", "Num_Coffre": 0, "dateTravaux": null }, "geometry": { "type": "Point", "coordinates": [ -4.01501022, 5.3559873 ] } },
{ "type": "Feature", "properties": { "fid": 21, "Cod": "Adj-22", "Commune": "Adjamé", "Quartier": "Ebrié", "Type_Capac": "20m3", "Nom": "Habitat extension", "X": -4.02202366, "Y": 5.35901298, "Affectatio": "Précollecte", "Num_Circu": "CDSM_500 - AMPLIROLL/Tt - NOUVEAU", "Amenagemen": "Plateforme pour 2 coffres", "Statut": "actif", "time": "29/12/2024", "Num_Coffre": 2, "dateTravaux": "14/03/2025" }, "geometry": { "type": "Point", "coordinates": [ -4.02202366, 5.35901298 ] } },
{ "type": "Feature", "properties": { "fid": 22, "Cod": "Adj-23", "Commune": "Adjamé", "Quartier": "Mirador", "Type_Capac": "20m3", "Nom": "Gbêgba", "X": -4.02184805, "Y": 5.35488599, "Affectatio": "Précollecte", "Num_Circu": "CDSM_500 - AMPLIROLL/Tt - NOUVEAU", "Amenagemen": "Pas de Plateforme", "Statut": "actif", "time": "31/10/2023", "Num_Coffre": 2, "dateTravaux": "15/03/2025" }, "geometry": { "type": "Point", "coordinates": [ -4.02184805, 5.35488599 ] } },
{ "type": "Feature", "properties": { "fid": 23, "Cod": "Adj-24", "Commune": "Adjamé", "Quartier": "Mairie 2", "Type_Capac": "5m3", "Nom": "Cuvette SOTRA", "X": -4.02840497, "Y": 5.35851928, "Affectatio": "EcoEburnie", "Num_Circu": "CDSM_111- CDSM_112- CDSM_123- CDSM_124", "Amenagemen": "Pas de Plateforme", "Statut": "supprimé", "time": "09/04/2024", "Num_Coffre": 0, "dateTravaux": null }, "geometry": { "type": "Point", "coordinates": [ -4.02840497, 5.35851928 ] } },
{ "type": "Feature", "properties": { "fid": 24, "Cod": "Adj-25", "Commune": "Adjamé", "Quartier": "Adjamé Nord", "Type_Capac": "5m3", "Nom": "Entrée nouvelle gare - Wrangler", "X": -4.02969421, "Y": 5.36315543, "Affectatio": "EcoEburnie", "Num_Circu": "CDSM_111- CDSM_112", "Amenagemen": "Pas de Plateforme", "Statut": "supprimé", "time": "07/12/2023", "Num_Coffre": 0, "dateTravaux": null }, "geometry": { "type": "Point", "coordinates": [ -4.02969421, 5.36315543 ] } },
{ "type": "Feature", "properties": { "fid": 25, "Cod": "Adj-26", "Commune": "Adjamé", "Quartier": "Indénié - Adjamé", "Type_Capac": "5m3", "Nom": "Rond point Marie Thérèse", "X": -4.0177078, "Y": 5.3478983, "Affectatio": "EcoEburnie", "Num_Circu": "CDSM_111- CDSM_124", "Amenagemen": "Pas de Plateforme", "Statut": "supprimé", "time": null, "Num_Coffre": 0, "dateTravaux": null }, "geometry": { "type": "Point", "coordinates": [ -4.0177078, 5.3478983 ] } },
{ "type": "Feature", "properties": { "fid": 26, "Cod": "Adj-27", "Commune": "Adjamé", "Quartier": "Délégation", "Type_Capac": "5m3", "Nom": "William jacob 1", "X": -4.0277677, "Y": 5.35411359, "Affectatio": "EcoEburnie", "Num_Circu": "CDSM_111_CDSM_122", "Amenagemen": "Pas de Plateforme", "Statut": "actif", "time": "10/01/2025", "Num_Coffre": 2, "dateTravaux": null }, "geometry": { "type": "Point", "coordinates": [ -4.0277677, 5.35411359 ] } },
{ "type": "Feature", "properties": { "fid": 27, "Cod": "Adj-28", "Commune": "Adjamé", "Quartier": "Délégation", "Type_Capac": "5m3", "Nom": "William jacob 2", "X": -4.02896046, "Y": 5.35395239, "Affectatio": "EcoEburnie", "Num_Circu": "CDSM_111- CDSM_122", "Amenagemen": "Pas de Plateforme", "Statut": "actif", "time": "10/01/2025", "Num_Coffre": 2, "dateTravaux": null }, "geometry": { "type": "Point", "coordinates": [ -4.02896046, 5.35395239 ] } },
{ "type": "Feature", "properties": { "fid": 28, "Cod": "Adj-29", "Commune": "Adjamé", "Quartier": null, "Type_Capac": "5m3", "Nom": "INSP", "X": -4.02628101, "Y": 5.33926585, "Affectatio": "EcoEburnie", "Num_Circu": "CDSM_111", "Amenagemen": "Pas de Plateforme", "Statut": "supprimé", "time": "24/04/2024", "Num_Coffre": 0, "dateTravaux": null }, "geometry": { "type": "Point", "coordinates": [ -4.02628101, 5.33926585 ] } },
{ "type": "Feature", "properties": { "fid": 29, "Cod": "Adj-30", "Commune": "Adjamé", "Quartier": "Indénié - Adjamé", "Type_Capac": "5m3", "Nom": "CNPS", "X": -4.02184958, "Y": 5.34166296, "Affectatio": "EcoEburnie", "Num_Circu": "CDSM_111", "Amenagemen": "Pas de Plateforme", "Statut": "supprimé", "time": "22/05/2024", "Num_Coffre": 0, "dateTravaux": null }, "geometry": { "type": "Point", "coordinates": [ -4.02184958, 5.34166296 ] } },
{ "type": "Feature", "properties": { "fid": 30, "Cod": "Adj-31", "Commune": "Adjamé", "Quartier": "Habitat extension", "Type_Capac": "5m3", "Nom": "Mirador", "X": -4.02433541, "Y": 5.35664473, "Affectatio": "EcoEburnie", "Num_Circu": "CDSM_123- CDSM_124", "Amenagemen": "Pas de Plateforme", "Statut": "supprimé", "time": "22/05/2024", "Num_Coffre": 0, "dateTravaux": null }, "geometry": { "type": "Point", "coordinates": [ -4.02433541, 5.35664473 ] } },
{ "type": "Feature", "properties": { "fid": 31, "Cod": "Adj-32", "Commune": "Adjamé", "Quartier": "Ebrié", "Type_Capac": "5m3", "Nom": "Eglise methodiste", "X": -4.01704249, "Y": 5.3554159, "Affectatio": "EcoEburnie", "Num_Circu": "CDSM_111", "Amenagemen": "Pas de Plateforme", "Statut": "actif", "time": "08/12/2023", "Num_Coffre": 1, "dateTravaux": null }, "geometry": { "type": "Point", "coordinates": [ -4.01704249, 5.3554159 ] } },
{ "type": "Feature", "properties": { "fid": 32, "Cod": "Adj-33", "Commune": "Adjamé", "Quartier": "Ebrié", "Type_Capac": "5m3", "Nom": "Arret Carine couture", "X": -4.01607288, "Y": 5.35736763, "Affectatio": "EcoEburnie", "Num_Circu": "CDSM_111- CDSM_123", "Amenagemen": "Pas de Plateforme", "Statut": "actif", "time": "31/10/2023", "Num_Coffre": 1, "dateTravaux": null }, "geometry": { "type": "Point", "coordinates": [ -4.01607288, 5.35736763 ] } },
{ "type": "Feature", "properties": { "fid": 33, "Cod": "Adj-34", "Commune": "Adjamé", "Quartier": "Williamsville 2", "Type_Capac": "4m3", "Nom": "CRS", "X": -4.02602117, "Y": 5.36906804, "Affectatio": "EcoEburnie", "Num_Circu": "CDSM_111- CDSM_123", "Amenagemen": "Pas de Plateforme", "Statut": "actif", "time": "17/05/2024", "Num_Coffre": 1, "dateTravaux": null }, "geometry": { "type": "Point", "coordinates": [ -4.02602117, 5.36906804 ] } },
{ "type": "Feature", "properties": { "fid": 34, "Cod": "Adj-35", "Commune": "Adjamé", "Quartier": "Williamsville 1", "Type_Capac": "5m3", "Nom": "Terminus 14", "X": -4.02379993, "Y": 5.36728265, "Affectatio": "EcoEburnie", "Num_Circu": "CDSM_111- CDSM_123", "Amenagemen": "Pas de Plateforme", "Statut": "actif", "time": "17/05/2024", "Num_Coffre": 1, "dateTravaux": null }, "geometry": { "type": "Point", "coordinates": [ -4.02379993, 5.36728265 ] } },
{ "type": "Feature", "properties": { "fid": 35, "Cod": "Adj-36", "Commune": "Adjamé", "Quartier": "Williamsville 1", "Type_Capac": "5m3", "Nom": "Williamsville mosquée", "X": -4.02039467, "Y": 5.36549651, "Affectatio": "EcoEburnie", "Num_Circu": "CDSM_111- CDSM_123", "Amenagemen": "Pas de Plateforme", "Statut": "actif", "time": "15/01/2025", "Num_Coffre": 2, "dateTravaux": null }, "geometry": { "type": "Point", "coordinates": [ -4.02039467, 5.36549651 ] } },
{ "type": "Feature", "properties": { "fid": 36, "Cod": "Adj-37", "Commune": "Adjamé", "Quartier": "Pailliet", "Type_Capac": "20m3", "Nom": "Université Nagui Abrogoua", "X": -4.01908396, "Y": 5.39458141, "Affectatio": "Précollecte", "Num_Circu": "CDSM_500 - AMPLIROLL/Tt - NOUVEAU", "Amenagemen": "Pas de Plateforme", "Statut": "actif", "time": "31/01/2023", "Num_Coffre": 1, "dateTravaux": "01/03/2025" }, "geometry": { "type": "Point", "coordinates": [ -4.01908396, 5.39458141 ] } },
{ "type": "Feature", "properties": { "fid": 37, "Cod": "Adj-38", "Commune": "Adjamé", "Quartier": "220 Logements", "Type_Capac": "5m3", "Nom": "PIT", "X": -4.014, "Y": 5.3513, "Affectatio": "EcoEburnie", "Num_Circu": "CDSM-111", "Amenagemen": "Pas de Plateforme", "Statut": "actif", "time": "22/02/2024", "Num_Coffre": 1, "dateTravaux": null }, "geometry": { "type": "Point", "coordinates": [ -4.014, 5.3513 ] } },
{ "type": "Feature", "properties": { "fid": 38, "Cod": "Adj-39", "Commune": "Adjamé", "Quartier": "Adjamé Nord", "Type_Capac": "20m3", "Nom": "Gare Nord (Sotra)", "X": -4.027, "Y": 5.3592, "Affectatio": "Précollecte", "Num_Circu": "CDSM_500 - AMPLIROLL/Tt - NOUVEAU", "Amenagemen": "Pas de Plateforme", "Statut": "actif", "time": "17/05/2024", "Num_Coffre": 1, "dateTravaux": "15/03/2025" }, "geometry": { "type": "Point", "coordinates": [ -4.027, 5.3592 ] } },
{ "type": "Feature", "properties": { "fid": 39, "Cod": "Adj-40", "Commune": "Adjamé", "Quartier": "Williamsville 1", "Type_Capac": "20m3", "Nom": "Marché Oignon", "X": -4.02796414, "Y": 5.36658626, "Affectatio": "Précollecte", "Num_Circu": "CDSM_500 - AMPLIROLL/Tt - NOUVEAU", "Amenagemen": "Pas de Plateforme", "Statut": "actif", "time": "22/02/2024", "Num_Coffre": 3, "dateTravaux": "16/03/2025" }, "geometry": { "type": "Point", "coordinates": [ -4.02796414, 5.36658626 ] } },
{ "type": "Feature", "properties": { "fid": 40, "Cod": "Adj-41", "Commune": "Adjamé", "Quartier": "Indénié - Adjamé", "Type_Capac": "4m3", "Nom": "80 Logement", "X": -4.01749433, "Y": 5.34656114, "Affectatio": "EcoEburnie", "Num_Circu": "CDSM_124_CDSM_111", "Amenagemen": "Pas de Plateforme", "Statut": "actif", "time": "23/02/2024", "Num_Coffre": 1, "dateTravaux": null }, "geometry": { "type": "Point", "coordinates": [ -4.01749433, 5.34656114 ] } },
{ "type": "Feature", "properties": { "fid": 41, "Cod": "Adj-42", "Commune": "Adjamé", "Quartier": "Délégation", "Type_Capac": "20m3", "Nom": "Cité Ran", "X": -4.0284425, "Y": 5.35626566, "Affectatio": "Précollecte", "Num_Circu": "CDSM_500 - AMPLIROLL/Tt - NOUVEAU", "Amenagemen": "Pas de Plateforme", "Statut": "supprimé", "time": "07/05/2024", "Num_Coffre": 0, "dateTravaux": null }, "geometry": { "type": "Point", "coordinates": [ -4.0284425, 5.35626566 ] } },
{ "type": "Feature", "properties": { "fid": 42, "Cod": "Adj-43", "Commune": "Adjamé", "Quartier": "Sodeci - Filtisac", "Type_Capac": "20m3", "Nom": "Garage marché mouton", "X": -4.02930833, "Y": 5.37051944, "Affectatio": "Précollecte", "Num_Circu": "CDSM_500 - AMPLIROLL/Tt - NOUVEAU", "Amenagemen": "Pas de Plateforme", "Statut": "supprimé", "time": "27/06/2024", "Num_Coffre": 0, "dateTravaux": null }, "geometry": { "type": "Point", "coordinates": [ -4.02930833, 5.37051944 ] } },
{ "type": "Feature", "properties": { "fid": 43, "Cod": "Adj-44", "Commune": "Adjamé", "Quartier": "Williamsville 2", "Type_Capac": "4m3", "Nom": "EPV Konaté", "X": -4.01780378, "Y": 5.36341684, "Affectatio": "EcoEburnie", "Num_Circu": "CDSM_111_CDSM_123", "Amenagemen": "Pas de plateforme", "Statut": "actif", "time": "24/04/2024", "Num_Coffre": 1, "dateTravaux": null }, "geometry": { "type": "Point", "coordinates": [ -4.01780378, 5.36341684 ] } },
{ "type": "Feature", "properties": { "fid": 44, "Cod": "Adj-45", "Commune": "Adjamé", "Quartier": "Adjamé Village", "Type_Capac": "20m3", "Nom": "Adjamé Village 2", "X": -4.025, "Y": 5.34222222, "Affectatio": "Précollecte", "Num_Circu": "CDSM_500 - AMPLIROLL/Tt - NOUVEAU", "Amenagemen": "Pas de Plateforme", "Statut": "actif", "time": "06/09/2024", "Num_Coffre": 4, "dateTravaux": "12/03/2025" }, "geometry": { "type": "Point", "coordinates": [ -4.025, 5.34222222 ] } },
{ "type": "Feature", "properties": { "fid": 45, "Cod": "Adj-46", "Commune": "Adjamé", "Quartier": "Indénié - Adjamé", "Type_Capac": "20m3", "Nom": "Adjamé Village 1", "X": -4.023417, "Y": 5.34211111, "Affectatio": "Précollecte", "Num_Circu": "CDSM_500 - AMPLIROLL/Tt - NOUVEAU", "Amenagemen": "Pas de Plateforme", "Statut": "supprimé", "time": "06/09/2024", "Num_Coffre": 0, "dateTravaux": "15/03/2025" }, "geometry": { "type": "Point", "coordinates": [ -4.023417, 5.34211111 ] } },
{ "type": "Feature", "properties": { "fid": 46, "Cod": "Adj-47", "Commune": "Adjamé", "Quartier": "Sodeci - Filtisac", "Type_Capac": "5m3", "Nom": "Ancien OIPR", "X": -4.02360203, "Y": 5.38134338, "Affectatio": "EcoEburnie", "Num_Circu": "CDSM_111- CDSM_112", "Amenagemen": "Pas de Plateforme", "Statut": "actif", "time": "15/01/2025", "Num_Coffre": 1, "dateTravaux": null }, "geometry": { "type": "Point", "coordinates": [ -4.02360203, 5.38134338 ] } },
{ "type": "Feature", "properties": { "fid": 47, "Cod": "Adj-48", "Commune": "Adjamé", "Quartier": "Ebrié", "Type_Capac": "5m3", "Nom": "Institut Marie Thérèse Boigny", "X": -4.0189465, "Y": 5.35652956, "Affectatio": "EcoEburnie", "Num_Circu": "CDSM_111", "Amenagemen": "Pas de Plateforme", "Statut": "actif", "time": "15/01/2025", "Num_Coffre": 1, "dateTravaux": null }, "geometry": { "type": "Point", "coordinates": [ -4.0189465, 5.35652956 ] } },
{ "type": "Feature", "properties": { "fid": 48, "Cod": "Adj-49", "Commune": "Adjamé", "Quartier": "220 Logements", "Type_Capac": "5m3", "Nom": "220 Logement", "X": -4.0169996, "Y": 5.35170118, "Affectatio": "EcoEburnie", "Num_Circu": "CDSM_124_CDSM_111", "Amenagemen": "Pas de Plateforme", "Statut": "actif", "time": "15/01/2025", "Num_Coffre": 1, "dateTravaux": null }, "geometry": { "type": "Point", "coordinates": [ -4.0169996, 5.35170118 ] } },
{ "type": "Feature", "properties": { "fid": 49, "Cod": "Adj-50", "Commune": "Adjamé", "Quartier": "Williamsville 2", "Type_Capac": "4m3", "Nom": "Montée Williamsville", "X": -4.019325, "Y": 5.36461111, "Affectatio": "EcoEburnie", "Num_Circu": "CDSM_111_CDSM_123", "Amenagemen": "Pas de plateforme", "Statut": "actif", "time": "29/01/2025", "Num_Coffre": 1, "dateTravaux": null }, "geometry": { "type": "Point", "coordinates": [ -4.019325, 5.36461111 ] } },
{ "type": "Feature", "properties": { "fid": 50, "Cod": "Adj-51", "Commune": "Adjamé", "Quartier": "Mairie 1", "Type_Capac": "20m3", "Nom": "4e Pont Marché Feuille", "X": -4.02766199, "Y": 5.34219335, "Affectatio": "Précollecte", "Num_Circu": "CDSM_500 - AMPLIROLL/Tt - NOUVEAU", "Amenagemen": "Pas de Plateforme", "Statut": "actif", "time": "06/01/2025", "Num_Coffre": 2, "dateTravaux": "16/03/2025" }, "geometry": { "type": "Point", "coordinates": [ -4.02766199, 5.34219335 ] } },
{ "type": "Feature", "properties": { "fid": 51, "Cod": "Adj-52", "Commune": "Adjamé", "Quartier": "Mairie 1", "Type_Capac": "20m3", "Nom": "4e Pont Mosquée", "X": -4.02795633, "Y": 5.34255718, "Affectatio": "Précollecte", "Num_Circu": "CDSM_500 - AMPLIROLL/Tt - NOUVEAU", "Amenagemen": "Pas de Plateforme", "Statut": "supprimé", "time": "06/01/2025", "Num_Coffre": 0, "dateTravaux": null }, "geometry": { "type": "Point", "coordinates": [ -4.02795633, 5.34255718 ] } },
{ "type": "Feature", "properties": { "fid": 52, "Cod": "Adj-53", "Commune": "Adjamé", "Quartier": "Indénié - Adjamé", "Type_Capac": "5m3", "Nom": "Gare SBTA", "X": -4.0171, "Y": 5.3485, "Affectatio": "EcoEburnie", "Num_Circu": "CDSM_111- CDSM_124", "Amenagemen": "Pas de Plateforme", "Statut": "actif", "time": null, "Num_Coffre": 1, "dateTravaux": null }, "geometry": { "type": "Point", "coordinates": [ -4.0171, 5.3485 ] } },
{ "type": "Feature", "properties": { "fid": 53, "Cod": "Adj-54", "Commune": "Adjamé", "Quartier": "Adjamé Nord", "Type_Capac": "20m3", "Nom": "Wrangler Gare", "X": -4.02919008, "Y": 5.36292894, "Affectatio": "Précollecte", "Num_Circu": "CDSM_500 - AMPLIROLL/Tt - NOUVEAU", "Amenagemen": "Pas de Plateforme", "Statut": "actif", "time": "23/05/2025", "Num_Coffre": 1, "dateTravaux": null }, "geometry": { "type": "Point", "coordinates": [ -4.02919008, 5.36292894 ] } },
{ "type": "Feature", "properties": { "fid": 54, "Cod": "Att-1", "Commune": "Attécoubé", "Quartier": "Jean Paul 2", "Type_Capac": "20m3", "Nom": "Marché Locodjoro", "X": -4.04217013, "Y": 5.32923618, "Affectatio": "Précollecte", "Num_Circu": "CDSM_500 - AMPLIROLL/Tt - NOUVEAU", "Amenagemen": "Plateforme pour 2 coffres", "Statut": "actif", "time": "12/12/2023", "Num_Coffre": 2, "dateTravaux": "15/03/2025" }, "geometry": { "type": "Point", "coordinates": [ -4.04217013, 5.32923618 ] } },
{ "type": "Feature", "properties": { "fid": 55, "Cod": "Att-2", "Commune": "Attécoubé", "Quartier": "Jérusalem 3", "Type_Capac": "20m3", "Nom": "Plantation 1", "X": -4.04239928, "Y": 5.32277672, "Affectatio": "Précollecte", "Num_Circu": "CDSM_500 - AMPLIROLL/Tt - NOUVEAU", "Amenagemen": "Plateforme pour 2 coffres", "Statut": "supprimé", "time": null, "Num_Coffre": 0, "dateTravaux": null }, "geometry": { "type": "Point", "coordinates": [ -4.04239928, 5.32277672 ] } },
{ "type": "Feature", "properties": { "fid": 56, "Cod": "Att-3", "Commune": "Attécoubé", "Quartier": "Jérusalem Résidentiel", "Type_Capac": "20m3", "Nom": "Nadia", "X": -4.04391616, "Y": 5.31203497, "Affectatio": "Précollecte", "Num_Circu": "CDSM_500 - AMPLIROLL/Tt - NOUVEAU", "Amenagemen": "Plateforme pour 1 coffre", "Statut": "actif", "time": "12/12/2023", "Num_Coffre": 1, "dateTravaux": "15/03/2025" }, "geometry": { "type": "Point", "coordinates": [ -4.04391616, 5.31203497 ] } },
{ "type": "Feature", "properties": { "fid": 57, "Cod": "Att-4", "Commune": "Attécoubé", "Quartier": "Abobodoumé", "Type_Capac": "20m3", "Nom": "Cimétière Abobo Doumé", "X": -4.04194215, "Y": 5.30796803, "Affectatio": "Précollecte", "Num_Circu": "CDSM_500 - AMPLIROLL/Tt - NOUVEAU", "Amenagemen": "Pas de Plateforme", "Statut": "actif", "time": "12/12/2023", "Num_Coffre": 2, "dateTravaux": "13/03/2025" }, "geometry": { "type": "Point", "coordinates": [ -4.04194215, 5.30796803 ] } },
{ "type": "Feature", "properties": { "fid": 58, "Cod": "Att-5", "Commune": "Attécoubé", "Quartier": "Abobodoumé", "Type_Capac": "20m3", "Nom": "Marché poisson", "X": -4.03894503, "Y": 5.30776504, "Affectatio": "Précollecte", "Num_Circu": "CDSM_500 - AMPLIROLL/Tt - NOUVEAU", "Amenagemen": "Plateforme pour 1 coffre", "Statut": "actif", "time": "12/12/2023", "Num_Coffre": 1, "dateTravaux": "15/03/2025" }, "geometry": { "type": "Point", "coordinates": [ -4.03894503, 5.30776504 ] } },
{ "type": "Feature", "properties": { "fid": 59, "Cod": "Att-6", "Commune": "Attécoubé", "Quartier": "Abobodoumé", "Type_Capac": "20m3", "Nom": "Gare lagunaire", "X": -4.03576423, "Y": 5.30996381, "Affectatio": "EcoEburnie", "Num_Circu": "CDSM_505 - AMPLIROLL - ATTECOUBE – EEB", "Amenagemen": "Pas de Plateforme", "Statut": "actif", "time": "12/12/2023", "Num_Coffre": 1, "dateTravaux": "14/03/2025" }, "geometry": { "type": "Point", "coordinates": [ -4.03576423, 5.30996381 ] } },
{ "type": "Feature", "properties": { "fid": 60, "Cod": "Att-7", "Commune": "Attécoubé", "Quartier": "Lackman", "Type_Capac": "20m3", "Nom": "Rue des soeurs", "X": -4.03535534, "Y": 5.31692287, "Affectatio": "Précollecte", "Num_Circu": "CDSM_500 - AMPLIROLL/Tt - NOUVEAU", "Amenagemen": "Plateforme pour 1 coffre", "Statut": "actif", "time": "12/12/2023", "Num_Coffre": 1, "dateTravaux": "10/03/2025" }, "geometry": { "type": "Point", "coordinates": [ -4.03535534, 5.31692287 ] } },
{ "type": "Feature", "properties": { "fid": 61, "Cod": "Att-8", "Commune": "Attécoubé", "Quartier": "Lackman", "Type_Capac": "20m3", "Nom": "Caca sport", "X": -4.03958513, "Y": 5.3203357, "Affectatio": "Précollecte", "Num_Circu": "CDSM_500 - AMPLIROLL/Tt - NOUVEAU", "Amenagemen": "Plateforme pour 2 coffres", "Statut": "actif", "time": "12/12/2023", "Num_Coffre": 2, "dateTravaux": "14/03/2025" }, "geometry": { "type": "Point", "coordinates": [ -4.03958513, 5.3203357 ] } },
{ "type": "Feature", "properties": { "fid": 62, "Cod": "Att-9", "Commune": "Attécoubé", "Quartier": "Lackman", "Type_Capac": "20m3", "Nom": "Lackman", "X": -4.03448455, "Y": 5.32071693, "Affectatio": "Précollecte", "Num_Circu": "CDSM_500 - AMPLIROLL/Tt - NOUVEAU", "Amenagemen": "Plateforme pour 1 coffre", "Statut": "actif", "time": "12/12/2023", "Num_Coffre": 1, "dateTravaux": "03/03/2025" }, "geometry": { "type": "Point", "coordinates": [ -4.03448455, 5.32071693 ] } },
{ "type": "Feature", "properties": { "fid": 63, "Cod": "Att-10", "Commune": "Attécoubé", "Quartier": "Locodjoro", "Type_Capac": "20m3", "Nom": "Marché de Nuit", "X": -4.03708226, "Y": 5.32647427, "Affectatio": "Précollecte", "Num_Circu": "CDSM_500 - AMPLIROLL/Tt - NOUVEAU", "Amenagemen": "Plateforme pour 1 coffre", "Statut": "actif", "time": "12/12/2023", "Num_Coffre": 1, "dateTravaux": "16/03/2025" }, "geometry": { "type": "Point", "coordinates": [ -4.03708226, 5.32647427 ] } },
{ "type": "Feature", "properties": { "fid": 64, "Cod": "Att-11", "Commune": "Attécoubé", "Quartier": "Santé III", "Type_Capac": "20m3", "Nom": "Pinasse (Débarcadère)", "X": -4.04284865, "Y": 5.33933925, "Affectatio": "Précollecte", "Num_Circu": "CDSM_500 - AMPLIROLL/Tt - NOUVEAU", "Amenagemen": "Pas de Plateforme", "Statut": "actif", "time": "31/10/2023", "Num_Coffre": 1, "dateTravaux": "15/03/2025" }, "geometry": { "type": "Point", "coordinates": [ -4.04284865, 5.33933925 ] } },
{ "type": "Feature", "properties": { "fid": 65, "Cod": "Att-12", "Commune": "Attécoubé", "Quartier": "Santé III", "Type_Capac": "20m3", "Nom": "Safari", "X": -4.04857971, "Y": 5.34029279, "Affectatio": "EcoEburnie", "Num_Circu": "CDSM_505 - AMPLIROLL - ATTECOUBE – EEB", "Amenagemen": "Pas de Plateforme", "Statut": "actif", "time": "13/11/2023", "Num_Coffre": 1, "dateTravaux": "12/03/2025" }, "geometry": { "type": "Point", "coordinates": [ -4.04857971, 5.34029279 ] } },
{ "type": "Feature", "properties": { "fid": 66, "Cod": "Att-14", "Commune": "Attécoubé", "Quartier": "Gbébouto", "Type_Capac": "20m3", "Nom": "Vigou", "X": -4.04001769, "Y": 5.35159829, "Affectatio": "Précollecte", "Num_Circu": "CDSM_505 - AMPLIROLL /Tt - NOUVEAU", "Amenagemen": "Pas de Plateforme", "Statut": "supprimé", "time": null, "Num_Coffre": 0, "dateTravaux": null }, "geometry": { "type": "Point", "coordinates": [ -4.04001769, 5.35159829 ] } },
{ "type": "Feature", "properties": { "fid": 67, "Cod": "Att-15", "Commune": "Attécoubé", "Quartier": "Gbébouto", "Type_Capac": "20m3", "Nom": "Banco espoir", "X": -4.03935031, "Y": 5.3481026, "Affectatio": "EcoEburnie", "Num_Circu": "CDSM_505 - AMPLIROLL - ATTECOUBE – EEB", "Amenagemen": "Plateforme pour 1 coffre", "Statut": "actif", "time": "22/01/2024", "Num_Coffre": 2, "dateTravaux": null }, "geometry": { "type": "Point", "coordinates": [ -4.03935031, 5.3481026 ] } },
{ "type": "Feature", "properties": { "fid": 68, "Cod": "Att-16", "Commune": "Attécoubé", "Quartier": "La Paix", "Type_Capac": "20m3", "Nom": "La Paix", "X": -4.03738263, "Y": 5.3441234, "Affectatio": "EcoEburnie", "Num_Circu": "CDSM_505 - AMPLIROLL - ATTECOUBE – EEB", "Amenagemen": "Pas de Plateforme", "Statut": "supprimé", "time": "12/12/2023", "Num_Coffre": 0, "dateTravaux": null }, "geometry": { "type": "Point", "coordinates": [ -4.03738263, 5.3441234 ] } },
{ "type": "Feature", "properties": { "fid": 69, "Cod": "Att-17", "Commune": "Attécoubé", "Quartier": "Bidjan-Té", "Type_Capac": "20m3", "Nom": "Nouvelle gare", "X": -4.03342226, "Y": 5.34165716, "Affectatio": "Précollecte", "Num_Circu": "CDSM_500 - AMPLIROLL/Tt - NOUVEAU", "Amenagemen": "Pas de Plateforme", "Statut": "actif", "time": "12/12/2023", "Num_Coffre": 1, "dateTravaux": "15/03/2025" }, "geometry": { "type": "Point", "coordinates": [ -4.03342226, 5.34165716 ] } },
{ "type": "Feature", "properties": { "fid": 70, "Cod": "Att-18", "Commune": "Attécoubé", "Quartier": "Bidjan-Té", "Type_Capac": "5m3", "Nom": "Hôtel des Jeunes", "X": -4.03228003, "Y": 5.34839131, "Affectatio": "EcoEburnie", "Num_Circu": "CSDM_PC", "Amenagemen": "Plateforme pour 1 coffre", "Statut": "actif", "time": "16/10/2023", "Num_Coffre": 2, "dateTravaux": "15/03/2025" }, "geometry": { "type": "Point", "coordinates": [ -4.03228003, 5.34839131 ] } },
{ "type": "Feature", "properties": { "fid": 71, "Cod": "Att-19", "Commune": "Attécoubé", "Quartier": "Ecoles", "Type_Capac": "20m3", "Nom": "Marché central", "X": -4.03343509, "Y": 5.34857831, "Affectatio": "EcoEburnie", "Num_Circu": "CDSM_505 - AMPLIROLL - ATTECOUBE – EEB", "Amenagemen": "Pas de Plateforme", "Statut": "actif", "time": "16/01/2025", "Num_Coffre": 1, "dateTravaux": "14/03/2025" }, "geometry": { "type": "Point", "coordinates": [ -4.03343509, 5.34857831 ] } },
{ "type": "Feature", "properties": { "fid": 72, "Cod": "Att-20", "Commune": "Attécoubé", "Quartier": "La Paix", "Type_Capac": "20m3", "Nom": "Terminus 04", "X": -4.03476589, "Y": 5.34322421, "Affectatio": "EcoEburnie", "Num_Circu": "CDSM_505 - AMPLIROLL - ATTECOUBE – EEB", "Amenagemen": "Pas de Plateforme", "Statut": "actif", "time": "12/12/2023", "Num_Coffre": 1, "dateTravaux": "11/03/2025" }, "geometry": { "type": "Point", "coordinates": [ -4.03476589, 5.34322421 ] } },
{ "type": "Feature", "properties": { "fid": 73, "Cod": "Att-21", "Commune": "Attécoubé", "Quartier": "Saint Joseph", "Type_Capac": "20m3", "Nom": "Arrêt 15", "X": -4.03252431, "Y": 5.35186784, "Affectatio": "EcoEburnie", "Num_Circu": "CDSM_505 - AMPLIROLL - ATTECOUBE – EEB", "Amenagemen": "Pas de Plateforme", "Statut": "actif", "time": "12/12/2023", "Num_Coffre": 2, "dateTravaux": "13/03/2025" }, "geometry": { "type": "Point", "coordinates": [ -4.03252431, 5.35186784 ] } },
{ "type": "Feature", "properties": { "fid": 74, "Cod": "Att-22", "Commune": "Attécoubé", "Quartier": "Abidjan Agban", "Type_Capac": "20m3", "Nom": "Agban village", "X": -4.03180205, "Y": 5.35975455, "Affectatio": "EcoEburnie", "Num_Circu": "CDSM_505 - AMPLIROLL - ATTECOUBE – EEB", "Amenagemen": "Plateforme pour 1 coffre", "Statut": "actif", "time": "03/04/2024", "Num_Coffre": 2, "dateTravaux": "15/03/2025" }, "geometry": { "type": "Point", "coordinates": [ -4.03180205, 5.35975455 ] } },
{ "type": "Feature", "properties": { "fid": 75, "Cod": "Att-23", "Commune": "Attécoubé", "Quartier": "Cité Fairmont", "Type_Capac": "20m3", "Nom": "Agban Garage", "X": -4.03452119, "Y": 5.35925248, "Affectatio": "EcoEburnie", "Num_Circu": "CDSM_500 - AMPLIROLL/Tt - NOUVEAU", "Amenagemen": "Pas de Plateforme", "Statut": "supprimé", "time": null, "Num_Coffre": 0, "dateTravaux": null }, "geometry": { "type": "Point", "coordinates": [ -4.03452119, 5.35925248 ] } },
{ "type": "Feature", "properties": { "fid": 76, "Cod": "Att-24", "Commune": "Attécoubé", "Quartier": "Santé Village", "Type_Capac": "5m3", "Nom": "Carrefour Santé", "X": -4.03889395, "Y": 5.3316459, "Affectatio": "EcoEburnie", "Num_Circu": "CDSM_110- CDSM_122", "Amenagemen": "Pas de Plateforme", "Statut": "actif", "time": "31/10/2023", "Num_Coffre": 1, "dateTravaux": null }, "geometry": { "type": "Point", "coordinates": [ -4.03889395, 5.3316459 ] } },
{ "type": "Feature", "properties": { "fid": 77, "Cod": "Att-25", "Commune": "Attécoubé", "Quartier": "Santé Village", "Type_Capac": "5m3", "Nom": "Jean Paul II", "X": -4.04147093, "Y": 5.33254605, "Affectatio": "EcoEburnie", "Num_Circu": "CDSM_110- CDSM_122", "Amenagemen": "Pas de Plateforme", "Statut": "actif", "time": "31/10/2023", "Num_Coffre": 1, "dateTravaux": null }, "geometry": { "type": "Point", "coordinates": [ -4.04147093, 5.33254605 ] } },
{ "type": "Feature", "properties": { "fid": 78, "Cod": "Att-26", "Commune": "Attécoubé", "Quartier": "Santé III", "Type_Capac": "5m3", "Nom": "Station Shell Mossikro", "X": -4.04686596, "Y": 5.34078958, "Affectatio": "EcoEburnie", "Num_Circu": "CDSM_110- CDSM_122", "Amenagemen": "Pas de Plateforme", "Statut": "actif", "time": "23/01/2024", "Num_Coffre": 1, "dateTravaux": null }, "geometry": { "type": "Point", "coordinates": [ -4.04686596, 5.34078958 ] } },
{ "type": "Feature", "properties": { "fid": 79, "Cod": "Att-27", "Commune": "Attécoubé", "Quartier": "Santé III", "Type_Capac": "5m3", "Nom": "Mossikro carrefour marché", "X": -4.0457547, "Y": 5.34215817, "Affectatio": "EcoEburnie", "Num_Circu": null, "Amenagemen": "Pas de Plateforme", "Statut": "supprimé", "time": null, "Num_Coffre": 0, "dateTravaux": null }, "geometry": { "type": "Point", "coordinates": [ -4.0457547, 5.34215817 ] } },
{ "type": "Feature", "properties": { "fid": 80, "Cod": "Att-28", "Commune": "Attécoubé", "Quartier": "Djéné-Ecaré", "Type_Capac": "5m3", "Nom": "Djené 2", "X": -4.04532472, "Y": 5.34935966, "Affectatio": "EcoEburnie", "Num_Circu": null, "Amenagemen": "Pas de Plateforme", "Statut": "supprimé", "time": null, "Num_Coffre": 0, "dateTravaux": null }, "geometry": { "type": "Point", "coordinates": [ -4.04532472, 5.34935966 ] } },
{ "type": "Feature", "properties": { "fid": 81, "Cod": "Att-29", "Commune": "Attécoubé", "Quartier": "Némantoulaye", "Type_Capac": "5m3", "Nom": "Djené terrain", "X": -4.045295, "Y": 5.35043, "Affectatio": "EcoEburnie", "Num_Circu": null, "Amenagemen": "Pas de Plateforme", "Statut": "supprimé", "time": null, "Num_Coffre": 0, "dateTravaux": null }, "geometry": { "type": "Point", "coordinates": [ -4.045295, 5.35043 ] } },
{ "type": "Feature", "properties": { "fid": 82, "Cod": "Att-30", "Commune": "Attécoubé", "Quartier": "Némantoulaye", "Type_Capac": "5m3", "Nom": "Mosquée Nématoulaye", "X": -4.04569882, "Y": 5.35295767, "Affectatio": "EcoEburnie", "Num_Circu": "CDSM_110- CDSM_122", "Amenagemen": "Pas de Plateforme", "Statut": "actif", "time": "01/04/2024", "Num_Coffre": 1, "dateTravaux": null }, "geometry": { "type": "Point", "coordinates": [ -4.04569882, 5.35295767 ] } },
{ "type": "Feature", "properties": { "fid": 83, "Cod": "Att-31", "Commune": "Attécoubé", "Quartier": "Agban Attié", "Type_Capac": "5m3", "Nom": "Banco marché", "X": -4.04928344, "Y": 5.35821521, "Affectatio": "EcoEburnie", "Num_Circu": "CDSM_107- CDSM_110- CDSM_122", "Amenagemen": "Pas de Plateforme", "Statut": "supprimé", "time": "22/05/2024", "Num_Coffre": 0, "dateTravaux": null }, "geometry": { "type": "Point", "coordinates": [ -4.04928344, 5.35821521 ] } },
{ "type": "Feature", "properties": { "fid": 84, "Cod": "Att-32", "Commune": "Attécoubé", "Quartier": "Garage Machine", "Type_Capac": "5m3", "Nom": "Ecole primaire", "X": -4.05313376, "Y": 5.35744972, "Affectatio": "EcoEburnie", "Num_Circu": null, "Amenagemen": "Pas de Plateforme", "Statut": "supprimé", "time": null, "Num_Coffre": 0, "dateTravaux": null }, "geometry": { "type": "Point", "coordinates": [ -4.05313376, 5.35744972 ] } },
{ "type": "Feature", "properties": { "fid": 85, "Cod": "Att-36", "Commune": "Attécoubé", "Quartier": "Abidjan Agban", "Type_Capac": "5m3", "Nom": "Pharmacie Agban", "X": -4.02996745, "Y": 5.35872379, "Affectatio": "EcoEburnie", "Num_Circu": "CDSM_111", "Amenagemen": "Pas de Plateforme", "Statut": "supprimé", "time": "22/05/2024", "Num_Coffre": 0, "dateTravaux": null }, "geometry": { "type": "Point", "coordinates": [ -4.02996745, 5.35872379 ] } },
{ "type": "Feature", "properties": { "fid": 86, "Cod": "Att-37", "Commune": "Attécoubé", "Quartier": "Akélié", "Type_Capac": "20m3", "Nom": "Plantation 2", "X": -4.04205976, "Y": 5.32639532, "Affectatio": "EcoEburnie", "Num_Circu": "CDSM_505 - AMPLIROLL - ATTECOUBE – EEB", "Amenagemen": "Pas de Plateforme", "Statut": "actif", "time": "31/10/2023", "Num_Coffre": 1, "dateTravaux": "03/03/2025" }, "geometry": { "type": "Point", "coordinates": [ -4.04205976, 5.32639532 ] } },
{ "type": "Feature", "properties": { "fid": 87, "Cod": "Att-38", "Commune": "Attécoubé", "Quartier": "Gbébouto", "Type_Capac": "20m3", "Nom": "Pharmacie Rehoboth", "X": -4.03620039, "Y": 5.35159933, "Affectatio": "Précollecte", "Num_Circu": "CDSM_500 - AMPLIROLL/Tt - NOUVEAU", "Amenagemen": "Plateforme pour 1 coffre", "Statut": "actif", "time": "04/01/2025", "Num_Coffre": 2, "dateTravaux": "16/03/2025" }, "geometry": { "type": "Point", "coordinates": [ -4.03620039, 5.35159933 ] } },
{ "type": "Feature", "properties": { "fid": 88, "Cod": "Att-39", "Commune": "Attécoubé", "Quartier": "Banco Nord", "Type_Capac": "5m3", "Nom": "Mossikro en bas d'étage", "X": -4.05470778, "Y": 5.34173855, "Affectatio": "EcoEburnie", "Num_Circu": "CDSM_110- CDSM_122", "Amenagemen": "Pas de Plateforme", "Statut": "actif", "time": "17/10/2023", "Num_Coffre": 1, "dateTravaux": null }, "geometry": { "type": "Point", "coordinates": [ -4.05470778, 5.34173855 ] } },
{ "type": "Feature", "properties": { "fid": 89, "Cod": "Att-40", "Commune": "Attécoubé", "Quartier": "Loukoukro", "Type_Capac": "20m3", "Nom": "Loukoukro - Carrefour mossikro", "X": -4.04519347, "Y": 5.34486902, "Affectatio": "Précollecte", "Num_Circu": "CDSM_500 - AMPLIROLL/Tt - NOUVEAU", "Amenagemen": "Pas de Plateforme", "Statut": "supprimé", "time": "18/09/2023", "Num_Coffre": 0, "dateTravaux": null }, "geometry": { "type": "Point", "coordinates": [ -4.04519347, 5.34486902 ] } },
{ "type": "Feature", "properties": { "fid": 90, "Cod": "Att-41", "Commune": "Attécoubé", "Quartier": "Djéné-Ecaré", "Type_Capac": "5m3", "Nom": "Hotel distingo", "X": -4.04519871, "Y": 5.3479588, "Affectatio": "EcoEburnie", "Num_Circu": null, "Amenagemen": "Pas de Plateforme", "Statut": "supprimé", "time": null, "Num_Coffre": 0, "dateTravaux": null }, "geometry": { "type": "Point", "coordinates": [ -4.04519871, 5.3479588 ] } },
{ "type": "Feature", "properties": { "fid": 91, "Cod": "Att-42", "Commune": "Attécoubé", "Quartier": "Némantoulaye", "Type_Capac": "5m3", "Nom": "Djené 1", "X": -4.04552687, "Y": 5.35201584, "Affectatio": "EcoEburnie", "Num_Circu": null, "Amenagemen": "Pas de Plateforme", "Statut": "supprimé", "time": null, "Num_Coffre": 0, "dateTravaux": null }, "geometry": { "type": "Point", "coordinates": [ -4.04552687, 5.35201584 ] } },
{ "type": "Feature", "properties": { "fid": 92, "Cod": "Att-43", "Commune": "Attécoubé", "Quartier": "Forêt Classée du Banco", "Type_Capac": "20m3", "Nom": "Marché mangue", "X": -4.04305556, "Y": 5.35944444, "Affectatio": "EcoEburnie", "Num_Circu": "CDSM_505 - AMPLIROLL - ATTECOUBE – EEB", "Amenagemen": "Pas de Plateforme", "Statut": "actif", "time": "04/03/2025", "Num_Coffre": 1, "dateTravaux": null }, "geometry": { "type": "Point", "coordinates": [ -4.04305556, 5.35944444 ] } },
{ "type": "Feature", "properties": { "fid": 93, "Cod": "Att-43", "Commune": "Attécoubé", "Quartier": "Forêt Classée du Banco", "Type_Capac": "20m3", "Nom": "Marché mangue", "X": -4.0391908, "Y": 5.36105991, "Affectatio": "EcoEburnie", "Num_Circu": "CDSM_505 - AMPLIROLL - ATTECOUBE – EEB", "Amenagemen": "Pas de Plateforme", "Statut": "supprimé", "time": "20/12/2023", "Num_Coffre": 0, "dateTravaux": null }, "geometry": { "type": "Point", "coordinates": [ -4.0391908, 5.36105991 ] } },
{ "type": "Feature", "properties": { "fid": 94, "Cod": "Att-44", "Commune": "Attécoubé", "Quartier": "Sébroko", "Type_Capac": "5m3", "Nom": "Sebroko", "X": -4.03030754, "Y": 5.33976112, "Affectatio": "EcoEburnie", "Num_Circu": "CDSM_109- CDSM_122", "Amenagemen": "Pas de Plateforme", "Statut": "supprimé", "time": "21/02/2023", "Num_Coffre": 0, "dateTravaux": null }, "geometry": { "type": "Point", "coordinates": [ -4.03030754, 5.33976112 ] } },
{ "type": "Feature", "properties": { "fid": 95, "Cod": "Att-45", "Commune": "Attécoubé", "Quartier": "Marine", "Type_Capac": "5m3", "Nom": "Pont Marine", "X": -4.0396254, "Y": 5.34694347, "Affectatio": "EcoEburnie", "Num_Circu": "CSDM_109-CSDM_122", "Amenagemen": "Pas de Plateforme", "Statut": "actif", "time": "22/01/2024", "Num_Coffre": 1, "dateTravaux": null }, "geometry": { "type": "Point", "coordinates": [ -4.0396254, 5.34694347 ] } },
{ "type": "Feature", "properties": { "fid": 96, "Cod": "Att-46", "Commune": "Attécoubé", "Quartier": "La Paix", "Type_Capac": "5m3", "Nom": "Carrefour tchapalodrôme", "X": -4.03661638, "Y": 5.34514226, "Affectatio": "EcoEburnie", "Num_Circu": "CDSM_109- CDSM_122", "Amenagemen": "Pas de Plateforme", "Statut": "actif", "time": "13/11/2023", "Num_Coffre": 1, "dateTravaux": null }, "geometry": { "type": "Point", "coordinates": [ -4.03661638, 5.34514226 ] } },
{ "type": "Feature", "properties": { "fid": 97, "Cod": "Att-47", "Commune": "Attécoubé", "Quartier": "Ecoles", "Type_Capac": "5m3", "Nom": "La poste", "X": -4.03444674, "Y": 5.34825019, "Affectatio": "EcoEburnie", "Num_Circu": null, "Amenagemen": "Pas de Plateforme", "Statut": "supprimé", "time": null, "Num_Coffre": 0, "dateTravaux": "13/03/2025" }, "geometry": { "type": "Point", "coordinates": [ -4.03444674, 5.34825019 ] } },
{ "type": "Feature", "properties": { "fid": 98, "Cod": "Att-48", "Commune": "Attécoubé", "Quartier": "Gbébouto", "Type_Capac": "5m3", "Nom": "Boulangerie Rue Espoir", "X": -4.0373782, "Y": 5.34953597, "Affectatio": "EcoEburnie", "Num_Circu": "CDSM_109- CDSM_122", "Amenagemen": "Pas de Plateforme", "Statut": "supprimé", "time": "25/04/2024", "Num_Coffre": 0, "dateTravaux": null }, "geometry": { "type": "Point", "coordinates": [ -4.0373782, 5.34953597 ] } },
{ "type": "Feature", "properties": { "fid": 99, "Cod": "Att-49", "Commune": "Attécoubé", "Quartier": "Saint Joseph", "Type_Capac": "5m3", "Nom": "Résidence du Maire Bvd HKB", "X": -4.03462655, "Y": 5.35106742, "Affectatio": "EcoEburnie", "Num_Circu": "CDSM_109", "Amenagemen": "Pas de Plateforme", "Statut": "supprimé", "time": "22/05/2024", "Num_Coffre": 0, "dateTravaux": null }, "geometry": { "type": "Point", "coordinates": [ -4.03462655, 5.35106742 ] } },
{ "type": "Feature", "properties": { "fid": 100, "Cod": "Att-54", "Commune": "Attécoubé", "Quartier": "Djéné-Ecaré", "Type_Capac": "20m3", "Nom": "Djené Ecaré", "X": -4.04558654, "Y": 5.34856031, "Affectatio": "Précollecte", "Num_Circu": "CDSM_500 - AMPLIROLL/Tt - NOUVEAU", "Amenagemen": "Pas de Plateforme", "Statut": "actif", "time": "12/12/2023", "Num_Coffre": 2, "dateTravaux": "15/03/2025" }, "geometry": { "type": "Point", "coordinates": [ -4.04558654, 5.34856031 ] } },
{ "type": "Feature", "properties": { "fid": 101, "Cod": "Att-56", "Commune": "Attécoubé", "Quartier": "Abobodoumé", "Type_Capac": "5m3", "Nom": "Base Navale", "X": -4.03543416, "Y": 5.31441273, "Affectatio": "EcoEburnie", "Num_Circu": "CSDM_110-CSDM_122", "Amenagemen": "Pas de Plateforme", "Statut": "actif", "time": "08/12/2023", "Num_Coffre": 1, "dateTravaux": null }, "geometry": { "type": "Point", "coordinates": [ -4.03543416, 5.31441273 ] } },
{ "type": "Feature", "properties": { "fid": 102, "Cod": "Att-57", "Commune": "Attécoubé", "Quartier": "Mosquée", "Type_Capac": "5m3", "Nom": "10ieme Arrondissement", "X": -4.03469925, "Y": 5.34760937, "Affectatio": "EcoEburnie", "Num_Circu": "CSDM_109-CSDM_122", "Amenagemen": "Pas de Plateforme", "Statut": "actif", "time": "10/04/2024", "Num_Coffre": 2, "dateTravaux": null }, "geometry": { "type": "Point", "coordinates": [ -4.03469925, 5.34760937 ] } },
{ "type": "Feature", "properties": { "fid": 103, "Cod": "Att-59", "Commune": "Attécoubé", "Quartier": "Santé III", "Type_Capac": "5m3", "Nom": "Boulangerie", "X": -4.05036714, "Y": 5.34023619, "Affectatio": "EcoEburnie", "Num_Circu": "CDSM_110", "Amenagemen": "Pas de Plateforme", "Statut": "actif", "time": "13/11/2023", "Num_Coffre": 1, "dateTravaux": null }, "geometry": { "type": "Point", "coordinates": [ -4.05036714, 5.34023619 ] } },
{ "type": "Feature", "properties": { "fid": 104, "Cod": "Att-60", "Commune": "Attécoubé", "Quartier": "Bidjan-Té", "Type_Capac": "20m3", "Nom": "Hôtel des jeunes (Sylla et Frère)", "X": -4.0310307, "Y": 5.34780193, "Affectatio": "Précollecte", "Num_Circu": "CDSM_500 - AMPLIROLL/Tt - NOUVEAU", "Amenagemen": "Bitime", "Statut": "actif", "time": "08/12/2023", "Num_Coffre": 3, "dateTravaux": null }, "geometry": { "type": "Point", "coordinates": [ -4.0310307, 5.34780193 ] } },
{ "type": "Feature", "properties": { "fid": 105, "Cod": "Att-61", "Commune": "Attécoubé", "Quartier": "Lackman", "Type_Capac": "20m3", "Nom": "Cité Addoha", "X": -4.03497031, "Y": 5.32137658, "Affectatio": "EcoEburnie", "Num_Circu": "CDSM_500 - AMPLIROLL/Tt - NOUVEAU", "Amenagemen": "Plateforme pour 1 coffre", "Statut": "actif", "time": "03/04/2024", "Num_Coffre": 1, "dateTravaux": "16/03/2025" }, "geometry": { "type": "Point", "coordinates": [ -4.03497031, 5.32137658 ] } },
{ "type": "Feature", "properties": { "fid": 106, "Cod": "Att-62", "Commune": "Attécoubé", "Quartier": "Abidjan Agban", "Type_Capac": "5m3", "Nom": "Pharmacie Agban-Gare STB", "X": -4.0313349, "Y": 5.35892832, "Affectatio": "EcoEburnie", "Num_Circu": "CDSM_110", "Amenagemen": "Pas de Plateforme", "Statut": "actif", "time": "17/10/2023", "Num_Coffre": 1, "dateTravaux": null }, "geometry": { "type": "Point", "coordinates": [ -4.0313349, 5.35892832 ] } },
{ "type": "Feature", "properties": { "fid": 107, "Cod": "Att-63", "Commune": "Attécoubé", "Quartier": "La Paix", "Type_Capac": "5m3", "Nom": "Carrefour sacrifice", "X": -4.03724479, "Y": 5.34761469, "Affectatio": "EcoEburnie", "Num_Circu": "CDSM_109 - CDSM_122", "Amenagemen": "Pas de Plateforme", "Statut": "supprimé", "time": "22/05/2024", "Num_Coffre": 0, "dateTravaux": null }, "geometry": { "type": "Point", "coordinates": [ -4.03724479, 5.34761469 ] } },
{ "type": "Feature", "properties": { "fid": 108, "Cod": "Att-64", "Commune": "Attécoubé", "Quartier": "Agban Attié", "Type_Capac": "20m3", "Nom": "Sibéton 1", "X": -4.04563889, "Y": 5.35808333, "Affectatio": "Précollecte", "Num_Circu": "CDSM_500 - AMPLIROLL/Tt - NOUVEAU", "Amenagemen": "Plateforme pour 1 coffre", "Statut": "actif", "time": "08/07/2024", "Num_Coffre": 1, "dateTravaux": "15/03/2025" }, "geometry": { "type": "Point", "coordinates": [ -4.04563889, 5.35808333 ] } },
{ "type": "Feature", "properties": { "fid": 109, "Cod": "Att-65", "Commune": "Attécoubé", "Quartier": "La Paix", "Type_Capac": "4m3", "Nom": "Pharmacie Fatima", "X": -4.03826064, "Y": 5.34661806, "Affectatio": "EcoEburnie", "Num_Circu": "CDSM_109_CDSM_122", "Amenagemen": "Pas de plateforme", "Statut": "actif", "time": "24/04/2024", "Num_Coffre": 1, "dateTravaux": null }, "geometry": { "type": "Point", "coordinates": [ -4.03826064, 5.34661806 ] } },
{ "type": "Feature", "properties": { "fid": 110, "Cod": "Att-66", "Commune": "Attécoubé", "Quartier": "Espoir", "Type_Capac": "5m3", "Nom": "Au Charbon", "X": -4.03788509, "Y": 5.34854438, "Affectatio": "EcoEburnie", "Num_Circu": "CSDM_109-CSDM_122", "Amenagemen": "Pas de Plateforme", "Statut": "actif", "time": "24/04/2024", "Num_Coffre": 1, "dateTravaux": null }, "geometry": { "type": "Point", "coordinates": [ -4.03788509, 5.34854438 ] } },
{ "type": "Feature", "properties": { "fid": 111, "Cod": "Att-67", "Commune": "Attécoubé", "Quartier": "Bidjan-Té", "Type_Capac": "5m3", "Nom": "Biegoussi", "X": -4.03247455, "Y": 5.34544822, "Affectatio": "EcoEburnie", "Num_Circu": "CSDM_109-CSDM_122", "Amenagemen": "Pas de plateforme", "Statut": "actif", "time": "24/04/2024", "Num_Coffre": 1, "dateTravaux": null }, "geometry": { "type": "Point", "coordinates": [ -4.03247455, 5.34544822 ] } },
{ "type": "Feature", "properties": { "fid": 112, "Cod": "Att-68", "Commune": "Attécoubé", "Quartier": "Agban Attié", "Type_Capac": "20m3", "Nom": "Carrefour Thomas", "X": -4.05052778, "Y": 5.35591667, "Affectatio": "Précollecte", "Num_Circu": "CDSM_500 - AMPLIROLL/Tt - NOUVEAU", "Amenagemen": "Plateforme pour 1 coffre", "Statut": "actif", "time": "08/07/2024", "Num_Coffre": 2, "dateTravaux": null }, "geometry": { "type": "Point", "coordinates": [ -4.05052778, 5.35591667 ] } },
{ "type": "Feature", "properties": { "fid": 113, "Cod": "Att-69", "Commune": "Attécoubé", "Quartier": "Abidjan Agban", "Type_Capac": "20m3", "Nom": "Pont Mangue (Agban Garage)", "X": -4.03555556, "Y": 5.36191667, "Affectatio": "EcoEburnie", "Num_Circu": "CDSM_505 - AMPLIROLL - ATTECOUBE – EEB", "Amenagemen": "Pas de Plateforme", "Statut": "actif", "time": "19/08/2024", "Num_Coffre": 1, "dateTravaux": "03/03/2025" }, "geometry": { "type": "Point", "coordinates": [ -4.03555556, 5.36191667 ] } },
{ "type": "Feature", "properties": { "fid": 114, "Cod": "Att-70", "Commune": "Attécoubé", "Quartier": "Santé Village", "Type_Capac": "20m3", "Nom": "Santai Cimétière", "X": -4.0395, "Y": 5.33597222, "Affectatio": "Précollecte", "Num_Circu": "CDSM_500 - AMPLIROLL/Tt - NOUVEAU", "Amenagemen": "Pas de Plateforme", "Statut": "actif", "time": "22/07/2024", "Num_Coffre": 1, "dateTravaux": null }, "geometry": { "type": "Point", "coordinates": [ -4.0395, 5.33597222 ] } },
{ "type": "Feature", "properties": { "fid": 115, "Cod": "Att-71", "Commune": "Attécoubé", "Quartier": "Agban Attié", "Type_Capac": "20m3", "Nom": "Sibéton 2", "X": -4.04602778, "Y": 5.35797222, "Affectatio": "Précollecte", "Num_Circu": "CDSM_500 - AMPLIROLL/Tt - NOUVEAU", "Amenagemen": "Pas de plateforme", "Statut": "actif", "time": "02/09/2024", "Num_Coffre": 1, "dateTravaux": null }, "geometry": { "type": "Point", "coordinates": [ -4.04602778, 5.35797222 ] } },
{ "type": "Feature", "properties": { "fid": 116, "Cod": "Att-72", "Commune": "Attécoubé", "Quartier": "Santé Village", "Type_Capac": "20m3", "Nom": "Santai Chinois", "X": -4.04111686, "Y": 5.33469482, "Affectatio": "Précollecte", "Num_Circu": "CDSM_500 - AMPLIROLL/Tt - NOUVEAU", "Amenagemen": "Pas de Plateforme", "Statut": "actif", "time": "22/07/2024", "Num_Coffre": 1, "dateTravaux": "09/03/2025" }, "geometry": { "type": "Point", "coordinates": [ -4.04111686, 5.33469482 ] } },
{ "type": "Feature", "properties": { "fid": 117, "Cod": "Att-73", "Commune": "Attécoubé", "Quartier": "Lackman", "Type_Capac": "20m3", "Nom": "Terrain Caca sport", "X": -4.03852977, "Y": 5.31802844, "Affectatio": "Précollecte", "Num_Circu": "CDSM_500 - AMPLIROLL/Tt - NOUVEAU", "Amenagemen": "Plateforme pour 2 coffres", "Statut": "actif", "time": "14/12/2024", "Num_Coffre": 1, "dateTravaux": "14/03/2025" }, "geometry": { "type": "Point", "coordinates": [ -4.03852977, 5.31802844 ] } },
{ "type": "Feature", "properties": { "fid": 118, "Cod": "Att-74", "Commune": "Attécoubé", "Quartier": "Jérusalem 3", "Type_Capac": "5m3", "Nom": "Hôtel Blanc", "X": -4.04397078, "Y": 5.32170192, "Affectatio": "EcoEburnie", "Num_Circu": "CDSM_105", "Amenagemen": "Pas de Plateforme", "Statut": "actif", "time": "29/01/2025", "Num_Coffre": 1, "dateTravaux": "16/03/2025" }, "geometry": { "type": "Point", "coordinates": [ -4.04397078, 5.32170192 ] } },
{ "type": "Feature", "properties": { "fid": 119, "Cod": "Att-74", "Commune": "Attécoubé", "Quartier": "Fromager", "Type_Capac": "20m3", "Nom": "4e Pont", "X": -4.04961111, "Y": 5.3345, "Affectatio": "Précollecte", "Num_Circu": "CDSM_500 - AMPLIROLL/Tt - NOUVEAU", "Amenagemen": "Pas de Plateforme", "Statut": "actif", "time": "04/01/2025", "Num_Coffre": 2, "dateTravaux": "16/03/2025" }, "geometry": { "type": "Point", "coordinates": [ -4.04961111, 5.3345 ] } },
{ "type": "Feature", "properties": { "fid": 120, "Cod": "Att-75", "Commune": "Attécoubé", "Quartier": "Santai", "Type_Capac": "20m3", "Nom": "Santai Extension", "X": -4.051207, "Y": 5.335457, "Affectatio": "Précollecte", "Num_Circu": "CDSM_500 - AMPLIROLL/Tt - NOUVEAU", "Amenagemen": "Pas de Plateforme", "Statut": "actif", "time": "15/05/2025", "Num_Coffre": 1, "dateTravaux": null }, "geometry": { "type": "Point", "coordinates": [ -4.051207, 5.335457 ] } },
{ "type": "Feature", "properties": { "fid": 121, "Cod": null, "Commune": "Kossihouen", "Quartier": null, "Type_Capac": "12m3", "Nom": "Marché Kossihouen", "X": -4.29072485, "Y": 5.52208914, "Affectatio": "EcoEburnie", "Num_Circu": null, "Amenagemen": null, "Statut": "actif", "time": "31/10/2023", "Num_Coffre": 1, "dateTravaux": null }, "geometry": { "type": "Point", "coordinates": [ -4.29072485, 5.52208914 ] } },
{ "type": "Feature", "properties": { "fid": 122, "Cod": null, "Commune": "Kossihouen", "Quartier": null, "Type_Capac": "12m3", "Nom": "Kossihouen", "X": -4.29462932, "Y": 5.52157145, "Affectatio": "EcoEburnie", "Num_Circu": null, "Amenagemen": null, "Statut": "actif", "time": "31/10/2023", "Num_Coffre": 1, "dateTravaux": null }, "geometry": { "type": "Point", "coordinates": [ -4.29462932, 5.52157145 ] } },
{ "type": "Feature", "properties": { "fid": 123, "Cod": null, "Commune": "Kossihouen", "Quartier": null, "Type_Capac": "12m3", "Nom": "Nonkouagon", "X": -4.26807485, "Y": 5.46456828, "Affectatio": "EcoEburnie", "Num_Circu": null, "Amenagemen": null, "Statut": "actif", "time": "31/10/2023", "Num_Coffre": 1, "dateTravaux": null }, "geometry": { "type": "Point", "coordinates": [ -4.26807485, 5.46456828 ] } },
{ "type": "Feature", "properties": { "fid": 124, "Cod": null, "Commune": "Kossihouen", "Quartier": null, "Type_Capac": "12m3", "Nom": "Bago", "X": -4.27058079, "Y": 5.49214625, "Affectatio": "EcoEburnie", "Num_Circu": null, "Amenagemen": null, "Statut": "actif", "time": "31/10/2023", "Num_Coffre": 1, "dateTravaux": null }, "geometry": { "type": "Point", "coordinates": [ -4.27058079, 5.49214625 ] } },
{ "type": "Feature", "properties": { "fid": 125, "Cod": null, "Commune": "Kossihouen", "Quartier": null, "Type_Capac": "12m3", "Nom": "Kossihouen B", "X": -4.28379588, "Y": 5.52813665, "Affectatio": "EcoEburnie", "Num_Circu": null, "Amenagemen": null, "Statut": "actif", "time": "31/10/2023", "Num_Coffre": 1, "dateTravaux": null }, "geometry": { "type": "Point", "coordinates": [ -4.28379588, 5.52813665 ] } },
{ "type": "Feature", "properties": { "fid": 126, "Cod": null, "Commune": "Kossihouen", "Quartier": null, "Type_Capac": "12m3", "Nom": "Marché Kossihouen B", "X": -4.29129337, "Y": 5.52161398, "Affectatio": "EcoEburnie", "Num_Circu": null, "Amenagemen": null, "Statut": "actif", "time": "31/10/2023", "Num_Coffre": 1, "dateTravaux": null }, "geometry": { "type": "Point", "coordinates": [ -4.29129337, 5.52161398 ] } },
{ "type": "Feature", "properties": { "fid": 127, "Cod": null, "Commune": "Kossihouen", "Quartier": null, "Type_Capac": "12m3", "Nom": "EPP Kossihouen", "X": -4.2871586, "Y": 5.52541791, "Affectatio": "EcoEburnie", "Num_Circu": null, "Amenagemen": null, "Statut": "actif", "time": "31/10/2023", "Num_Coffre": 1, "dateTravaux": null }, "geometry": { "type": "Point", "coordinates": [ -4.2871586, 5.52541791 ] } },
{ "type": "Feature", "properties": { "fid": 128, "Cod": null, "Commune": "Kossihouen", "Quartier": null, "Type_Capac": "12m3", "Nom": "Guébo 2", "X": -4.29854216, "Y": 5.55713545, "Affectatio": "EcoEburnie", "Num_Circu": null, "Amenagemen": null, "Statut": "actif", "time": "31/10/2023", "Num_Coffre": 1, "dateTravaux": null }, "geometry": { "type": "Point", "coordinates": [ -4.29854216, 5.55713545 ] } },
{ "type": "Feature", "properties": { "fid": 129, "Cod": null, "Commune": "Kossihouen", "Quartier": null, "Type_Capac": "12m3", "Nom": "Guébo 1", "X": -4.29159895, "Y": 5.54347857, "Affectatio": "EcoEburnie", "Num_Circu": null, "Amenagemen": null, "Statut": "actif", "time": "31/10/2023", "Num_Coffre": 1, "dateTravaux": null }, "geometry": { "type": "Point", "coordinates": [ -4.29159895, 5.54347857 ] } },
{ "type": "Feature", "properties": { "fid": 130, "Cod": null, "Commune": "Kossihouen", "Quartier": null, "Type_Capac": "12m3", "Nom": "Kodiakro", "X": -4.32925721, "Y": 5.50514874, "Affectatio": "EcoEburnie", "Num_Circu": null, "Amenagemen": null, "Statut": "actif", "time": "31/10/2023", "Num_Coffre": 1, "dateTravaux": null }, "geometry": { "type": "Point", "coordinates": [ -4.32925721, 5.50514874 ] } },
{ "type": "Feature", "properties": { "fid": 131, "Cod": "Son-1", "Commune": "Songon", "Quartier": "Abadjin Kouté village", "Type_Capac": "20m3", "Nom": "Abadjin Kouté village", "X": -4.15445268, "Y": 5.32422991, "Affectatio": "Précollecte", "Num_Circu": "CDSM_500 - AMPLIROLL/Tt - NOUVEAU", "Amenagemen": "Pas Plateforme", "Statut": "actif", "time": "28/11/2023", "Num_Coffre": 1, "dateTravaux": "12/03/2025" }, "geometry": { "type": "Point", "coordinates": [ -4.15445268, 5.32422991 ] } },
{ "type": "Feature", "properties": { "fid": 132, "Cod": "Son-2", "Commune": "Songon", "Quartier": "Bimbresso", "Type_Capac": "20m3", "Nom": "Carrefour Bimbresso", "X": -4.14978505, "Y": 5.34178312, "Affectatio": "Précollecte", "Num_Circu": "CDSM_500 - AMPLIROLL/Tt - NOUVEAU", "Amenagemen": "Pas Plateforme", "Statut": "supprimé", "time": "01/02/2023", "Num_Coffre": 0, "dateTravaux": null }, "geometry": { "type": "Point", "coordinates": [ -4.14978505, 5.34178312 ] } },
{ "type": "Feature", "properties": { "fid": 133, "Cod": "Son-3", "Commune": "Songon", "Quartier": null, "Type_Capac": "20m3", "Nom": "SAPH TRCI (Songon)", "X": -4.1728266, "Y": 5.34465643, "Affectatio": "Précollecte", "Num_Circu": "CDSM_500 - AMPLIROLL/Tt - NOUVEAU", "Amenagemen": "Pas de Plateforme", "Statut": "actif", "time": "28/11/2023", "Num_Coffre": 1, "dateTravaux": "05/03/2025" }, "geometry": { "type": "Point", "coordinates": [ -4.1728266, 5.34465643 ] } },
{ "type": "Feature", "properties": { "fid": 134, "Cod": "Son-4", "Commune": "Songon", "Quartier": "Dagbé Village", "Type_Capac": "20m3", "Nom": "Carrefour Jacqueville", "X": -4.23134947, "Y": 5.32174749, "Affectatio": "Précollecte", "Num_Circu": "CDSM_500 - AMPLIROLL/Tt - NOUVEAU", "Amenagemen": "Pas Plateforme", "Statut": "actif", "time": "31/10/2023", "Num_Coffre": 1, "dateTravaux": "12/03/2025" }, "geometry": { "type": "Point", "coordinates": [ -4.23134947, 5.32174749 ] } },
{ "type": "Feature", "properties": { "fid": 135, "Cod": "Son-5", "Commune": "Songon", "Quartier": "Agban Village", "Type_Capac": "20m3", "Nom": "Attié 2", "X": -4.25080425, "Y": 5.32683783, "Affectatio": "Précollecte", "Num_Circu": "CDSM_500 - AMPLIROLL/Tt - NOUVEAU", "Amenagemen": "Plateforme pour 1 coffre", "Statut": "actif", "time": "11/11/2023", "Num_Coffre": 1, "dateTravaux": "08/03/2025" }, "geometry": { "type": "Point", "coordinates": [ -4.25080425, 5.32683783 ] } },
{ "type": "Feature", "properties": { "fid": 136, "Cod": "Son-6", "Commune": "Songon", "Quartier": null, "Type_Capac": "20m3", "Nom": "Palmci Songon", "X": -4.20255075, "Y": 5.40202544, "Affectatio": "Précollecte", "Num_Circu": "CDSM_500 - AMPLIROLL/Tt - NOUVEAU", "Amenagemen": null, "Statut": "supprimé", "time": null, "Num_Coffre": 0, "dateTravaux": null }, "geometry": { "type": "Point", "coordinates": [ -4.20255075, 5.40202544 ] } },
{ "type": "Feature", "properties": { "fid": 137, "Cod": "Son-7", "Commune": "Songon", "Quartier": "M'bratté", "Type_Capac": "20m3", "Nom": "M'bratté", "X": -4.25793017, "Y": 5.31360676, "Affectatio": "Précollecte", "Num_Circu": "CDSM_500 - AMPLIROLL/Tt - NOUVEAU", "Amenagemen": "Pas Plateforme", "Statut": "supprimé", "time": "31/10/2023", "Num_Coffre": 0, "dateTravaux": null }, "geometry": { "type": "Point", "coordinates": [ -4.25793017, 5.31360676 ] } },
{ "type": "Feature", "properties": { "fid": 138, "Cod": "Son-8", "Commune": "Songon", "Quartier": "Harriste", "Type_Capac": "20m3", "Nom": "Harriste", "X": -4.25384373, "Y": 5.31902362, "Affectatio": "Précollecte", "Num_Circu": "CDSM_500 - AMPLIROLL/Tt - NOUVEAU", "Amenagemen": "Pas Plateforme", "Statut": "actif", "time": "31/10/2023", "Num_Coffre": 1, "dateTravaux": "08/03/2025" }, "geometry": { "type": "Point", "coordinates": [ -4.25384373, 5.31902362 ] } },
{ "type": "Feature", "properties": { "fid": 139, "Cod": "Son-9", "Commune": "Songon", "Quartier": "M'bratté", "Type_Capac": "20m3", "Nom": "La poste", "X": -4.25289234, "Y": 5.32331712, "Affectatio": "Précollecte", "Num_Circu": "CDSM_500 - AMPLIROLL/Tt - NOUVEAU", "Amenagemen": "Pas Plateforme", "Statut": "actif", "time": "31/10/2023", "Num_Coffre": 3, "dateTravaux": null }, "geometry": { "type": "Point", "coordinates": [ -4.25289234, 5.32331712 ] } },
{ "type": "Feature", "properties": { "fid": 140, "Cod": "Son-10", "Commune": "Songon", "Quartier": "Agban Village", "Type_Capac": "20m3", "Nom": "Marché Agban", "X": -4.24892257, "Y": 5.32533937, "Affectatio": "Précollecte", "Num_Circu": "CDSM_500 - AMPLIROLL/Tt - NOUVEAU", "Amenagemen": "Pas Plateforme", "Statut": "actif", "time": "31/10/2023", "Num_Coffre": 1, "dateTravaux": "12/03/2025" }, "geometry": { "type": "Point", "coordinates": [ -4.24892257, 5.32533937 ] } },
{ "type": "Feature", "properties": { "fid": 141, "Cod": "Son-11", "Commune": "Songon", "Quartier": "Songon Té", "Type_Capac": "20m3", "Nom": "Songon Té", "X": -4.24908556, "Y": 5.30592161, "Affectatio": "Précollecte", "Num_Circu": "CDSM_500 - AMPLIROLL/Tt - NOUVEAU", "Amenagemen": "Plateforme pour 1 coffre", "Statut": "actif", "time": "31/10/2023", "Num_Coffre": 1, "dateTravaux": "10/03/2025" }, "geometry": { "type": "Point", "coordinates": [ -4.24908556, 5.30592161 ] } },
{ "type": "Feature", "properties": { "fid": 142, "Cod": "Son-12", "Commune": "Songon", "Quartier": "Dagbé Village", "Type_Capac": "20m3", "Nom": "Songon Dagbé (Cimétière)", "X": -4.22977569, "Y": 5.31704885, "Affectatio": "Précollecte", "Num_Circu": "CDSM_500 - AMPLIROLL/Tt - NOUVEAU", "Amenagemen": "Pas Plateforme", "Statut": "actif", "time": "31/10/2023", "Num_Coffre": 1, "dateTravaux": "10/03/2025" }, "geometry": { "type": "Point", "coordinates": [ -4.22977569, 5.31704885 ] } },
{ "type": "Feature", "properties": { "fid": 143, "Cod": "Son-13", "Commune": "Songon", "Quartier": null, "Type_Capac": "20m3", "Nom": "Antenne", "X": -4.14117599, "Y": 5.33773718, "Affectatio": "Précollecte", "Num_Circu": "CDSM_500 - AMPLIROLL/Tt - NOUVEAU", "Amenagemen": "Pas Plateforme", "Statut": "actif", "time": "28/11/2023", "Num_Coffre": 2, "dateTravaux": "14/03/2025" }, "geometry": { "type": "Point", "coordinates": [ -4.14117599, 5.33773718 ] } },
{ "type": "Feature", "properties": { "fid": 144, "Cod": "Son-14", "Commune": "Songon", "Quartier": "Beugré Mambé", "Type_Capac": "20m3", "Nom": "Beugré Mambé 1", "X": -4.14047593, "Y": 5.34223373, "Affectatio": "Précollecte", "Num_Circu": "CDSM_500 - AMPLIROLL/Tt - NOUVEAU", "Amenagemen": "Pas de Plateforme", "Statut": "supprimé", "time": null, "Num_Coffre": 0, "dateTravaux": null }, "geometry": { "type": "Point", "coordinates": [ -4.14047593, 5.34223373 ] } },
{ "type": "Feature", "properties": { "fid": 145, "Cod": "Son-15", "Commune": "Songon", "Quartier": null, "Type_Capac": "5m3", "Nom": "Km22", "X": -4.15740205, "Y": 5.40676034, "Affectatio": "EcoEburnie", "Num_Circu": null, "Amenagemen": "Pas de Plateforme", "Statut": "supprimé", "time": null, "Num_Coffre": 0, "dateTravaux": null }, "geometry": { "type": "Point", "coordinates": [ -4.15740205, 5.40676034 ] } },
{ "type": "Feature", "properties": { "fid": 146, "Cod": "Son-16", "Commune": "Songon", "Quartier": "Institut Pasteur", "Type_Capac": "5m3", "Nom": "Institut Pasteur", "X": -4.14614528, "Y": 5.32111365, "Affectatio": "EcoEburnie", "Num_Circu": "CDSM_PC", "Amenagemen": "Pas de Plateforme", "Statut": "actif", "time": "31/10/2023", "Num_Coffre": 1, "dateTravaux": null }, "geometry": { "type": "Point", "coordinates": [ -4.14614528, 5.32111365 ] } },
{ "type": "Feature", "properties": { "fid": 147, "Cod": "Son-18", "Commune": "Songon", "Quartier": null, "Type_Capac": "5m3", "Nom": "CNRA", "X": -4.15553501, "Y": 5.31277498, "Affectatio": "EcoEburnie", "Num_Circu": null, "Amenagemen": "Pas de Plateforme", "Statut": "supprimé", "time": null, "Num_Coffre": 0, "dateTravaux": null }, "geometry": { "type": "Point", "coordinates": [ -4.15553501, 5.31277498 ] } },
{ "type": "Feature", "properties": { "fid": 148, "Cod": "Son-19", "Commune": "Songon", "Quartier": "Abadjin Doumé", "Type_Capac": "5m3", "Nom": "Abadjin Doumé Eglise", "X": -4.14818491, "Y": 5.30958415, "Affectatio": "EcoEburnie", "Num_Circu": "CDSM_101", "Amenagemen": "Pas de Plateforme", "Statut": "actif", "time": "01/12/2023", "Num_Coffre": 1, "dateTravaux": null }, "geometry": { "type": "Point", "coordinates": [ -4.14818491, 5.30958415 ] } },
{ "type": "Feature", "properties": { "fid": 149, "Cod": "Son-20", "Commune": "Songon", "Quartier": "Abadjin Doumé", "Type_Capac": "5m3", "Nom": "Abadjin Doumé Lagune", "X": -4.14795293, "Y": 5.30856252, "Affectatio": "EcoEburnie", "Num_Circu": "CDSM_PC", "Amenagemen": "Pas de Plateforme", "Statut": "supprimé", "time": null, "Num_Coffre": 0, "dateTravaux": null }, "geometry": { "type": "Point", "coordinates": [ -4.14795293, 5.30856252 ] } },
{ "type": "Feature", "properties": { "fid": 150, "Cod": "Son-21", "Commune": "Songon", "Quartier": null, "Type_Capac": "5m3", "Nom": "SAPH campement", "X": -4.16695122, "Y": 5.34087068, "Affectatio": "EcoEburnie", "Num_Circu": "CDSM_101", "Amenagemen": "Pas de Plateforme", "Statut": "supprimé", "time": null, "Num_Coffre": 0, "dateTravaux": null }, "geometry": { "type": "Point", "coordinates": [ -4.16695122, 5.34087068 ] } },
{ "type": "Feature", "properties": { "fid": 151, "Cod": "Son-22", "Commune": "Songon", "Quartier": null, "Type_Capac": "5m3", "Nom": "Route de dabou saph", "X": -4.1712244, "Y": 5.33965961, "Affectatio": "EcoEburnie", "Num_Circu": null, "Amenagemen": "Pas de Plateforme", "Statut": "supprimé", "time": null, "Num_Coffre": 0, "dateTravaux": null }, "geometry": { "type": "Point", "coordinates": [ -4.1712244, 5.33965961 ] } },
{ "type": "Feature", "properties": { "fid": 152, "Cod": "Son-23", "Commune": "Songon", "Quartier": "Ayowahi", "Type_Capac": "5m3", "Nom": "SAPH Ayowahi", "X": -4.18739956, "Y": 5.35935211, "Affectatio": "EcoEburnie", "Num_Circu": "CDSM_PC", "Amenagemen": "Pas de Plateforme", "Statut": "actif", "time": "31/10/2023", "Num_Coffre": 1, "dateTravaux": null }, "geometry": { "type": "Point", "coordinates": [ -4.18739956, 5.35935211 ] } },
{ "type": "Feature", "properties": { "fid": 153, "Cod": "Son-24", "Commune": "Songon", "Quartier": null, "Type_Capac": "5m3", "Nom": "Songon Mme Djo fruit", "X": -4.18166324, "Y": 5.33643239, "Affectatio": "EcoEburnie", "Num_Circu": null, "Amenagemen": "Pas de Plateforme", "Statut": "supprimé", "time": null, "Num_Coffre": 0, "dateTravaux": null }, "geometry": { "type": "Point", "coordinates": [ -4.18166324, 5.33643239 ] } },
{ "type": "Feature", "properties": { "fid": 154, "Cod": "Son-25", "Commune": "Songon", "Quartier": null, "Type_Capac": "5m3", "Nom": "Marché aux fruits", "X": -4.18231631, "Y": 5.3363036, "Affectatio": "EcoEburnie", "Num_Circu": null, "Amenagemen": "Pas de Plateforme", "Statut": "supprimé", "time": null, "Num_Coffre": 0, "dateTravaux": null }, "geometry": { "type": "Point", "coordinates": [ -4.18231631, 5.3363036 ] } },
{ "type": "Feature", "properties": { "fid": 155, "Cod": "Son-26", "Commune": "Songon", "Quartier": null, "Type_Capac": "5m3", "Nom": "Carrefour Gravier", "X": -4.18337173, "Y": 5.33521488, "Affectatio": "EcoEburnie", "Num_Circu": "CDSM_101", "Amenagemen": "Pas de Plateforme", "Statut": "actif", "time": "23/01/2025", "Num_Coffre": 1, "dateTravaux": null }, "geometry": { "type": "Point", "coordinates": [ -4.18337173, 5.33521488 ] } },
{ "type": "Feature", "properties": { "fid": 156, "Cod": "Son-27", "Commune": "Songon", "Quartier": "Adiapoté 2", "Type_Capac": "5m3", "Nom": "Adiapoté 2", "X": -4.17762242, "Y": 5.31031487, "Affectatio": "EcoEburnie", "Num_Circu": "CDSM_PC", "Amenagemen": "Pas de Plateforme", "Statut": "actif", "time": "20/12/2023", "Num_Coffre": 1, "dateTravaux": null }, "geometry": { "type": "Point", "coordinates": [ -4.17762242, 5.31031487 ] } },
{ "type": "Feature", "properties": { "fid": 157, "Cod": "Son-28", "Commune": "Songon", "Quartier": "Godoumé Village", "Type_Capac": "5m3", "Nom": "Godoumé (1 et 2)", "X": -4.18655474, "Y": 5.30711299, "Affectatio": "EcoEburnie", "Num_Circu": "CDSM_PC", "Amenagemen": "Pas de Plateforme", "Statut": "actif", "time": "28/11/2023", "Num_Coffre": 2, "dateTravaux": null }, "geometry": { "type": "Point", "coordinates": [ -4.18655474, 5.30711299 ] } },
{ "type": "Feature", "properties": { "fid": 158, "Cod": "Son-29", "Commune": "Songon", "Quartier": "Adiapoto", "Type_Capac": "5m3", "Nom": "Adiapoto 1", "X": -4.1924211, "Y": 5.31339674, "Affectatio": "EcoEburnie", "Num_Circu": "CDSM_PC", "Amenagemen": "Pas de Plateforme", "Statut": "actif", "time": "28/11/2023", "Num_Coffre": 2, "dateTravaux": null }, "geometry": { "type": "Point", "coordinates": [ -4.1924211, 5.31339674 ] } },
{ "type": "Feature", "properties": { "fid": 159, "Cod": "Son-30", "Commune": "Songon", "Quartier": null, "Type_Capac": "5m3", "Nom": "Adiapoto Carrefour", "X": -4.19386869, "Y": 5.31914449, "Affectatio": "EcoEburnie", "Num_Circu": "CDSM_101", "Amenagemen": "Pas de Plateforme", "Statut": "supprimé", "time": null, "Num_Coffre": 0, "dateTravaux": null }, "geometry": { "type": "Point", "coordinates": [ -4.19386869, 5.31914449 ] } },
{ "type": "Feature", "properties": { "fid": 160, "Cod": "Son-31", "Commune": "Songon", "Quartier": "Kassemblé Village", "Type_Capac": "5m3", "Nom": "PFO", "X": -4.20555486, "Y": 5.32005424, "Affectatio": "EcoEburnie", "Num_Circu": null, "Amenagemen": "Pas de Plateforme", "Statut": "supprimé", "time": null, "Num_Coffre": 0, "dateTravaux": null }, "geometry": { "type": "Point", "coordinates": [ -4.20555486, 5.32005424 ] } },
{ "type": "Feature", "properties": { "fid": 161, "Cod": "Son-32", "Commune": "Songon", "Quartier": "Kassemblé Village", "Type_Capac": "5m3", "Nom": "Kassemblé manioc 2", "X": -4.20930543, "Y": 5.31612428, "Affectatio": "EcoEburnie", "Num_Circu": null, "Amenagemen": "Pas de Plateforme", "Statut": "supprimé", "time": null, "Num_Coffre": 0, "dateTravaux": null }, "geometry": { "type": "Point", "coordinates": [ -4.20930543, 5.31612428 ] } },
{ "type": "Feature", "properties": { "fid": 162, "Cod": "Son-34", "Commune": "Songon", "Quartier": "Kassemblé Village", "Type_Capac": "5m3", "Nom": "Kassemblé Cité N'zikan", "X": -4.2010482, "Y": 5.32637343, "Affectatio": "EcoEburnie", "Num_Circu": "CDSM_101", "Amenagemen": "Pas de Plateforme", "Statut": "actif", "time": "12/12/2023", "Num_Coffre": 1, "dateTravaux": null }, "geometry": { "type": "Point", "coordinates": [ -4.2010482, 5.32637343 ] } },
{ "type": "Feature", "properties": { "fid": 163, "Cod": "Son-35", "Commune": "Songon", "Quartier": "Kassemblé Village", "Type_Capac": "5m3", "Nom": "Rond point INTERBAT-PROMOGIM", "X": -4.21568771, "Y": 5.32811743, "Affectatio": "EcoEburnie", "Num_Circu": null, "Amenagemen": "Pas de Plateforme", "Statut": "supprimé", "time": null, "Num_Coffre": 0, "dateTravaux": null }, "geometry": { "type": "Point", "coordinates": [ -4.21568771, 5.32811743 ] } },
{ "type": "Feature", "properties": { "fid": 164, "Cod": "Son-36", "Commune": "Songon", "Quartier": "Kassemblé Village", "Type_Capac": "5m3", "Nom": "Cite ORIBAT", "X": -4.21149009, "Y": 5.32079873, "Affectatio": "EcoEburnie", "Num_Circu": null, "Amenagemen": "Pas de Plateforme", "Statut": "supprimé", "time": null, "Num_Coffre": 0, "dateTravaux": null }, "geometry": { "type": "Point", "coordinates": [ -4.21149009, 5.32079873 ] } },
{ "type": "Feature", "properties": { "fid": 165, "Cod": "Son-37", "Commune": "Songon", "Quartier": "Kassemblé Village", "Type_Capac": "5m3", "Nom": "Kassemblé Ecole primaire", "X": -4.21317622, "Y": 5.3187821, "Affectatio": "EcoEburnie", "Num_Circu": "CDSM_101", "Amenagemen": "Pas de Plateforme", "Statut": "supprimé", "time": null, "Num_Coffre": 0, "dateTravaux": null }, "geometry": { "type": "Point", "coordinates": [ -4.21317622, 5.3187821 ] } },
{ "type": "Feature", "properties": { "fid": 166, "Cod": "Son-38", "Commune": "Songon", "Quartier": "Kassemblé Village", "Type_Capac": "5m3", "Nom": "Kassemblé Campement Gouro", "X": -4.21677483, "Y": 5.32021128, "Affectatio": "EcoEburnie", "Num_Circu": "CDSM_101", "Amenagemen": "Pas de Plateforme", "Statut": "supprimé", "time": null, "Num_Coffre": 0, "dateTravaux": null }, "geometry": { "type": "Point", "coordinates": [ -4.21677483, 5.32021128 ] } },
{ "type": "Feature", "properties": { "fid": 167, "Cod": "Son-39", "Commune": "Songon", "Quartier": "Dagbé Village", "Type_Capac": "5m3", "Nom": "Dagbé campement gouro", "X": -4.22474059, "Y": 5.32155489, "Affectatio": "EcoEburnie", "Num_Circu": null, "Amenagemen": "Pas de Plateforme", "Statut": "supprimé", "time": null, "Num_Coffre": 0, "dateTravaux": null }, "geometry": { "type": "Point", "coordinates": [ -4.22474059, 5.32155489 ] } },
{ "type": "Feature", "properties": { "fid": 168, "Cod": "Son-42", "Commune": "Songon", "Quartier": "Agban Village", "Type_Capac": "5m3", "Nom": "Abiathé Carrefour", "X": -4.25812688, "Y": 5.32560282, "Affectatio": "EcoEburnie", "Num_Circu": "CDSM_101", "Amenagemen": "Pas de Plateforme", "Statut": "actif", "time": "31/10/2023", "Num_Coffre": 1, "dateTravaux": null }, "geometry": { "type": "Point", "coordinates": [ -4.25812688, 5.32560282 ] } },
{ "type": "Feature", "properties": { "fid": 169, "Cod": "Son-43", "Commune": "Songon", "Quartier": "N'djèm", "Type_Capac": "20m3", "Nom": "Pont Jacqueville (N'djèm)", "X": -4.23921497, "Y": 5.2717597, "Affectatio": "EcoEburnie", "Num_Circu": "CDSM_506 - AMPLIROLL - SONGON – EEB", "Amenagemen": "Pas Plateforme", "Statut": "actif", "time": "13/11/2023", "Num_Coffre": 1, "dateTravaux": "13/03/2025" }, "geometry": { "type": "Point", "coordinates": [ -4.23921497, 5.2717597 ] } },
{ "type": "Feature", "properties": { "fid": 170, "Cod": "Son-44", "Commune": "Songon", "Quartier": "Dagbé Village", "Type_Capac": "5m3", "Nom": "Dagbé", "X": -4.22753343, "Y": 5.31296341, "Affectatio": "EcoEburnie", "Num_Circu": null, "Amenagemen": "Pas de Plateforme", "Statut": "supprimé", "time": null, "Num_Coffre": 0, "dateTravaux": null }, "geometry": { "type": "Point", "coordinates": [ -4.22753343, 5.31296341 ] } },
{ "type": "Feature", "properties": { "fid": 171, "Cod": "Son-45", "Commune": "Songon", "Quartier": "Kassemblé Village", "Type_Capac": "20m3", "Nom": "Kasemblé terrain", "X": -4.21098547, "Y": 5.31376579, "Affectatio": "EcoEburnie", "Num_Circu": "CDSM_506 - AMPLIROLL - SONGON – EEB", "Amenagemen": "Pas Plateforme", "Statut": "actif", "time": "13/11/2023", "Num_Coffre": 1, "dateTravaux": "14/03/2025" }, "geometry": { "type": "Point", "coordinates": [ -4.21098547, 5.31376579 ] } },
{ "type": "Feature", "properties": { "fid": 172, "Cod": "Son-46", "Commune": "Songon", "Quartier": "Kassemblé Village", "Type_Capac": "20m3", "Nom": "Kasemblé manioc", "X": -4.21342926, "Y": 5.31483276, "Affectatio": "EcoEburnie", "Num_Circu": "CDSM_506 - AMPLIROLL - SONGON – EEB", "Amenagemen": "Pas Plateforme", "Statut": "actif", "time": "13/11/2023", "Num_Coffre": 1, "dateTravaux": "14/03/2025" }, "geometry": { "type": "Point", "coordinates": [ -4.21342926, 5.31483276 ] } },
{ "type": "Feature", "properties": { "fid": 173, "Cod": "Son-47", "Commune": "Songon", "Quartier": "Bimbresso", "Type_Capac": "5m3", "Nom": "Bimbresso CNRA", "X": -4.15448892, "Y": 5.31505259, "Affectatio": "EcoEburnie", "Num_Circu": "CDSM_101", "Amenagemen": "Pas de Plateforme", "Statut": "actif", "time": "28/11/2023", "Num_Coffre": 1, "dateTravaux": null }, "geometry": { "type": "Point", "coordinates": [ -4.15448892, 5.31505259 ] } },
{ "type": "Feature", "properties": { "fid": 174, "Cod": "Son-48", "Commune": "Songon", "Quartier": "Godoumé Village", "Type_Capac": "5m3", "Nom": "Godoumé 2", "X": -4.18725259, "Y": 5.30540855, "Affectatio": "EcoEburnie", "Num_Circu": null, "Amenagemen": "Pas de Plateforme", "Statut": "supprimé", "time": null, "Num_Coffre": 0, "dateTravaux": null }, "geometry": { "type": "Point", "coordinates": [ -4.18725259, 5.30540855 ] } },
{ "type": "Feature", "properties": { "fid": 175, "Cod": "Son-49", "Commune": "Songon", "Quartier": "Kassemblé Village", "Type_Capac": "5m3", "Nom": "Kassemblé SODECI", "X": -4.21118917, "Y": 5.32564629, "Affectatio": "EcoEburnie", "Num_Circu": "CDSM_101", "Amenagemen": "Pas de Plateforme", "Statut": "actif", "time": "30/01/2024", "Num_Coffre": 1, "dateTravaux": null }, "geometry": { "type": "Point", "coordinates": [ -4.21118917, 5.32564629 ] } },
{ "type": "Feature", "properties": { "fid": 176, "Cod": "Son-50", "Commune": "Songon", "Quartier": "Kassemblé Village", "Type_Capac": "5m3", "Nom": "Kassemblé  Cité Venus 2", "X": -4.21510523, "Y": 5.32236807, "Affectatio": "EcoEburnie", "Num_Circu": null, "Amenagemen": "Pas de Plateforme", "Statut": "supprimé", "time": null, "Num_Coffre": 0, "dateTravaux": null }, "geometry": { "type": "Point", "coordinates": [ -4.21510523, 5.32236807 ] } },
{ "type": "Feature", "properties": { "fid": 177, "Cod": "Son-51", "Commune": "Songon", "Quartier": "Kassemblé Village", "Type_Capac": "5m3", "Nom": "Kassemblé entrée Cité", "X": -4.21159053, "Y": 5.32134973, "Affectatio": "EcoEburnie", "Num_Circu": "CDSM_101", "Amenagemen": "Pas de Plateforme", "Statut": "actif", "time": "31/10/2023", "Num_Coffre": 2, "dateTravaux": null }, "geometry": { "type": "Point", "coordinates": [ -4.21159053, 5.32134973 ] } },
{ "type": "Feature", "properties": { "fid": 178, "Cod": "Son-52", "Commune": "Songon", "Quartier": "Dagbé Village", "Type_Capac": "5m3", "Nom": "Dagbé Cité Grâce", "X": -4.22786107, "Y": 5.3212068, "Affectatio": "EcoEburnie", "Num_Circu": "CDSM_101", "Amenagemen": "Pas de Plateforme", "Statut": "supprimé", "time": null, "Num_Coffre": 0, "dateTravaux": null }, "geometry": { "type": "Point", "coordinates": [ -4.22786107, 5.3212068 ] } },
{ "type": "Feature", "properties": { "fid": 179, "Cod": "Son-53", "Commune": "Songon", "Quartier": "Dagbé Village", "Type_Capac": "5m3", "Nom": "Dagbé 1", "X": -4.22935481, "Y": 5.31275628, "Affectatio": "EcoEburnie", "Num_Circu": "CDSM_PC", "Amenagemen": "Pas de Plateforme", "Statut": "actif", "time": "31/10/2023", "Num_Coffre": 1, "dateTravaux": null }, "geometry": { "type": "Point", "coordinates": [ -4.22935481, 5.31275628 ] } },
{ "type": "Feature", "properties": { "fid": 180, "Cod": "Son-54", "Commune": "Songon", "Quartier": "Dagbé Village", "Type_Capac": "5m3", "Nom": "Dagbé 2", "X": -4.22831068, "Y": 5.31268148, "Affectatio": "EcoEburnie", "Num_Circu": "CDSM_PC", "Amenagemen": "Pas de Plateforme", "Statut": "actif", "time": "31/10/2023", "Num_Coffre": 1, "dateTravaux": null }, "geometry": { "type": "Point", "coordinates": [ -4.22831068, 5.31268148 ] } },
{ "type": "Feature", "properties": { "fid": 181, "Cod": "Son-55", "Commune": "Songon", "Quartier": null, "Type_Capac": "5m3", "Nom": "Agban Attié 2", "X": -4.24599648, "Y": 5.35357833, "Affectatio": "EcoEburnie", "Num_Circu": "CDSM_PC", "Amenagemen": "Pas de Plateforme", "Statut": "actif", "time": "11/11/2023", "Num_Coffre": 1, "dateTravaux": null }, "geometry": { "type": "Point", "coordinates": [ -4.24599648, 5.35357833 ] } },
{ "type": "Feature", "properties": { "fid": 182, "Cod": "Son-57", "Commune": "Songon", "Quartier": "Abiatté village", "Type_Capac": "5m3", "Nom": "Abiatté village", "X": -4.29169046, "Y": 5.38569205, "Affectatio": "EcoEburnie", "Num_Circu": "CDSM_PC", "Amenagemen": "Pas de Plateforme", "Statut": "actif", "time": "31/10/2023", "Num_Coffre": 1, "dateTravaux": null }, "geometry": { "type": "Point", "coordinates": [ -4.29169046, 5.38569205 ] } },
{ "type": "Feature", "properties": { "fid": 183, "Cod": "Son-58", "Commune": "Songon", "Quartier": "Adiapoté 2", "Type_Capac": "5m3", "Nom": "Adiapoté (Ancien SAPH)", "X": -4.17510036, "Y": 5.3089004, "Affectatio": "EcoEburnie", "Num_Circu": null, "Amenagemen": "Pas de Plateforme", "Statut": "supprimé", "time": null, "Num_Coffre": 0, "dateTravaux": null }, "geometry": { "type": "Point", "coordinates": [ -4.17510036, 5.3089004 ] } },
{ "type": "Feature", "properties": { "fid": 184, "Cod": "Son-59", "Commune": "Songon", "Quartier": "M'bratté", "Type_Capac": "5m3", "Nom": "M'bratté Ecole Primaire", "X": -4.25739966, "Y": 5.32430011, "Affectatio": "EcoEburnie", "Num_Circu": "CDSM_101", "Amenagemen": "Pas de Plateforme", "Statut": "actif", "time": "31/10/2023", "Num_Coffre": 1, "dateTravaux": null }, "geometry": { "type": "Point", "coordinates": [ -4.25739966, 5.32430011 ] } },
{ "type": "Feature", "properties": { "fid": 185, "Cod": "Son-60", "Commune": "Songon", "Quartier": null, "Type_Capac": "5m3", "Nom": "Plantation hévéa (promoci)", "X": -4.17447434, "Y": 5.40821265, "Affectatio": "EcoEburnie", "Num_Circu": null, "Amenagemen": "Pas de Plateforme", "Statut": "supprimé", "time": null, "Num_Coffre": 0, "dateTravaux": null }, "geometry": { "type": "Point", "coordinates": [ -4.17447434, 5.40821265 ] } },
{ "type": "Feature", "properties": { "fid": 186, "Cod": "Son-62", "Commune": "Songon", "Quartier": "Kassemblé Village", "Type_Capac": "5m3", "Nom": "kassemblé cité venus", "X": -4.21510523, "Y": 5.32236807, "Affectatio": "EcoEburnie", "Num_Circu": "CDSM_101", "Amenagemen": "Pas de Plateforme", "Statut": "actif", "time": "31/10/2023", "Num_Coffre": 2, "dateTravaux": null }, "geometry": { "type": "Point", "coordinates": [ -4.21510523, 5.32236807 ] } },
{ "type": "Feature", "properties": { "fid": 187, "Cod": "Son-63", "Commune": "Songon", "Quartier": "Kassemblé Village", "Type_Capac": "5m3", "Nom": "Kassemblé Cité Arc-en-ciel", "X": -4.20670598, "Y": 5.32408586, "Affectatio": "EcoEburnie", "Num_Circu": "CDSM_101", "Amenagemen": "Pas de Plateforme", "Statut": "actif", "time": "31/10/2023", "Num_Coffre": 1, "dateTravaux": null }, "geometry": { "type": "Point", "coordinates": [ -4.20670598, 5.32408586 ] } },
{ "type": "Feature", "properties": { "fid": 188, "Cod": "Son-64", "Commune": "Songon", "Quartier": "Kassemblé Village", "Type_Capac": "5m3", "Nom": "Kassemblé Cité Promogim", "X": -4.21408691, "Y": 5.32764304, "Affectatio": "EcoEburnie", "Num_Circu": "CDSM_101", "Amenagemen": "Pas de Plateforme", "Statut": "actif", "time": "31/10/2023", "Num_Coffre": 1, "dateTravaux": null }, "geometry": { "type": "Point", "coordinates": [ -4.21408691, 5.32764304 ] } },
{ "type": "Feature", "properties": { "fid": 189, "Cod": "Son-65", "Commune": "Songon", "Quartier": "Abadjin Doumé", "Type_Capac": "5m3", "Nom": "Abadjin Doumé Chef Village", "X": -4.14601002, "Y": 5.31091595, "Affectatio": "EcoEburnie", "Num_Circu": "CDSM_PC", "Amenagemen": "Pas de Plateforme", "Statut": "actif", "time": "28/11/2023", "Num_Coffre": 1, "dateTravaux": null }, "geometry": { "type": "Point", "coordinates": [ -4.14601002, 5.31091595 ] } },
{ "type": "Feature", "properties": { "fid": 190, "Cod": "Son-66", "Commune": "Songon", "Quartier": "Bimbresso", "Type_Capac": "5m3", "Nom": "Bimbresso Marché", "X": -4.15499327, "Y": 5.31695284, "Affectatio": "EcoEburnie", "Num_Circu": "CDSM_101", "Amenagemen": "Pas de Plateforme", "Statut": "actif", "time": "28/11/2023", "Num_Coffre": 1, "dateTravaux": null }, "geometry": { "type": "Point", "coordinates": [ -4.15499327, 5.31695284 ] } },
{ "type": "Feature", "properties": { "fid": 191, "Cod": "Son-67", "Commune": "Songon", "Quartier": "Agban Village", "Type_Capac": "20m3", "Nom": "Agban pharmacie (mosquée)", "X": -4.25251402, "Y": 5.326027, "Affectatio": "Précollecte", "Num_Circu": "CDSM_500 - AMPLIROLL/Tt - NOUVEAU", "Amenagemen": "Pas de Plateforme", "Statut": "supprimé", "time": "08/12/2023", "Num_Coffre": 0, "dateTravaux": null }, "geometry": { "type": "Point", "coordinates": [ -4.25251402, 5.326027 ] } },
{ "type": "Feature", "properties": { "fid": 192, "Cod": "Son-68", "Commune": "Songon", "Quartier": "N'djèm", "Type_Capac": "20m3", "Nom": "Groupe Scolaire (N'Djèm)", "X": -4.23291671, "Y": 5.26977782, "Affectatio": "EcoEburnie", "Num_Circu": "CDSM_506 - AMPLIROLL - SONGON – EEB", "Amenagemen": "Pas de Plateforme", "Statut": "actif", "time": "13/11/2023", "Num_Coffre": 1, "dateTravaux": "13/03/2025" }, "geometry": { "type": "Point", "coordinates": [ -4.23291671, 5.26977782 ] } },
{ "type": "Feature", "properties": { "fid": 193, "Cod": "Son-69", "Commune": "Songon", "Quartier": null, "Type_Capac": "5m3", "Nom": "Carrefour Salem", "X": -4.17052726, "Y": 5.33920132, "Affectatio": "EcoEburnie", "Num_Circu": "CDSM_101", "Amenagemen": "Pas de Plateforme", "Statut": "actif", "time": "20/12/2023", "Num_Coffre": 1, "dateTravaux": null }, "geometry": { "type": "Point", "coordinates": [ -4.17052726, 5.33920132 ] } },
{ "type": "Feature", "properties": { "fid": 194, "Cod": "Son-70", "Commune": "Songon", "Quartier": "M'bratté", "Type_Capac": "20m3", "Nom": "M'Bratté", "X": -4.25962097, "Y": 5.3170473, "Affectatio": "Précollecte", "Num_Circu": "CDSM_500 - AMPLIROLL/Tt - NOUVEAU", "Amenagemen": "Pas de Plateforme", "Statut": "actif", "time": "30/01/2024", "Num_Coffre": 1, "dateTravaux": "14/03/2025" }, "geometry": { "type": "Point", "coordinates": [ -4.25962097, 5.3170473 ] } },
{ "type": "Feature", "properties": { "fid": 195, "Cod": "Son-71", "Commune": "Songon", "Quartier": null, "Type_Capac": "20m3", "Nom": "Madame Djo Cimétière", "X": -4.18066667, "Y": 5.33661111, "Affectatio": "Précollecte", "Num_Circu": "CDSM_500 - AMPLIROLL/Tt - NOUVEAU", "Amenagemen": "Pas de Plateforme", "Statut": "actif", "time": "19/08/2024", "Num_Coffre": 1, "dateTravaux": "15/03/2025" }, "geometry": { "type": "Point", "coordinates": [ -4.18066667, 5.33661111 ] } },
{ "type": "Feature", "properties": { "fid": 196, "Cod": "Son-72", "Commune": "Songon", "Quartier": "Abiatté village", "Type_Capac": "20m3", "Nom": "Abiatté village", "X": -4.29269444, "Y": 5.38891667, "Affectatio": "EcoEburnie", "Num_Circu": "CDSM_506 - AMPLIROLL - SONGON – EEB", "Amenagemen": "Pas de Plateforme", "Statut": "actif", "time": "08/08/2024", "Num_Coffre": 1, "dateTravaux": null }, "geometry": { "type": "Point", "coordinates": [ -4.29269444, 5.38891667 ] } },
{ "type": "Feature", "properties": { "fid": 197, "Cod": "Son-73", "Commune": "Songon", "Quartier": "Grand Bonjour village", "Type_Capac": "20m3", "Nom": "Grand Bonjour village", "X": -4.25647222, "Y": 5.4175, "Affectatio": "EcoEburnie", "Num_Circu": "CDSM_506 - AMPLIROLL - SONGON – EEB", "Amenagemen": "Pas de Plateforme", "Statut": "actif", "time": "08/08/2024", "Num_Coffre": 1, "dateTravaux": "06/03/2025" }, "geometry": { "type": "Point", "coordinates": [ -4.25647222, 5.4175 ] } },
{ "type": "Feature", "properties": { "fid": 198, "Cod": "Son-74", "Commune": "Songon", "Quartier": "Bimbresso", "Type_Capac": "20m3", "Nom": "Brimbresso Forêt CNRA", "X": -4.14683333, "Y": 5.36552778, "Affectatio": "Précollecte", "Num_Circu": "CDSM_500 - AMPLIROLL/Tt - NOUVEAU", "Amenagemen": "Pas de Plateforme", "Statut": "actif", "time": "19/08/2024", "Num_Coffre": 1, "dateTravaux": "08/03/2025" }, "geometry": { "type": "Point", "coordinates": [ -4.14683333, 5.36552778 ] } },
{ "type": "Feature", "properties": { "fid": 199, "Cod": "Son-75", "Commune": "Songon", "Quartier": "Bimbresso", "Type_Capac": "20m3", "Nom": "Brimbresso Forêt Marché", "X": -4.14619448, "Y": 5.36024642, "Affectatio": "Précollecte", "Num_Circu": "CDSM_500 - AMPLIROLL/Tt - NOUVEAU", "Amenagemen": "Pas de Plateforme", "Statut": "actif", "time": "21/08/2024", "Num_Coffre": 1, "dateTravaux": "13/03/2025" }, "geometry": { "type": "Point", "coordinates": [ -4.14619448, 5.36024642 ] } },
{ "type": "Feature", "properties": { "fid": 200, "Cod": "Son-76", "Commune": "Songon", "Quartier": "Abadjin Doumé", "Type_Capac": "5m3", "Nom": "Abadjin Doumé Terrain", "X": -4.14761111, "Y": 5.31108333, "Affectatio": "EcoEburnie", "Num_Circu": "CDSM_PC", "Amenagemen": "Pas Plateforme", "Statut": "actif", "time": "27/08/2024", "Num_Coffre": 1, "dateTravaux": null }, "geometry": { "type": "Point", "coordinates": [ -4.14761111, 5.31108333 ] } },
{ "type": "Feature", "properties": { "fid": 201, "Cod": "Son-77", "Commune": "Songon", "Quartier": "Quartier Agnéby", "Type_Capac": "4m3", "Nom": "Quartier Agnéby", "X": -4.26691667, "Y": 5.33883333, "Affectatio": "EcoEburnie", "Num_Circu": "CDSM_PC", "Amenagemen": "Pas de Plateforme", "Statut": "actif", "time": "10/10/2024", "Num_Coffre": 1, "dateTravaux": null }, "geometry": { "type": "Point", "coordinates": [ -4.26691667, 5.33883333 ] } },
{ "type": "Feature", "properties": { "fid": 202, "Cod": "Son-78", "Commune": "Songon", "Quartier": null, "Type_Capac": "4m3", "Nom": "Carrefour Machine", "X": -4.18911111, "Y": 5.32633333, "Affectatio": "EcoEburnie", "Num_Circu": "CDSM_101", "Amenagemen": "Pas de Plateforme", "Statut": "actif", "time": "10/10/2024", "Num_Coffre": 1, "dateTravaux": null }, "geometry": { "type": "Point", "coordinates": [ -4.18911111, 5.32633333 ] } },
{ "type": "Feature", "properties": { "fid": 203, "Cod": "Son-79", "Commune": "Songon", "Quartier": "Bimbresso", "Type_Capac": "20m3", "Nom": "Brmbresso Cité Iris (N'Kouamin)", "X": -4.15422222, "Y": 5.34563889, "Affectatio": "Précollecte", "Num_Circu": "CDSM_500 - AMPLIROLL/Tt - NOUVEAU", "Amenagemen": "Pas de Plateforme", "Statut": "actif", "time": "27/10/2024", "Num_Coffre": 1, "dateTravaux": "12/03/2025" }, "geometry": { "type": "Point", "coordinates": [ -4.15422222, 5.34563889 ] } },
{ "type": "Feature", "properties": { "fid": 204, "Cod": "Son-80", "Commune": "Songon", "Quartier": "Institut Pasteur", "Type_Capac": "4m3", "Nom": "Institut Pasteur 2", "X": -4.14969444, "Y": 5.32113889, "Affectatio": "EcoEburnie", "Num_Circu": "CDSM_PC", "Amenagemen": "Pas de Plateforme", "Statut": "actif", "time": "08/11/2024", "Num_Coffre": 1, "dateTravaux": null }, "geometry": { "type": "Point", "coordinates": [ -4.14969444, 5.32113889 ] } },
{ "type": "Feature", "properties": { "fid": 205, "Cod": "Son-81", "Commune": "Songon", "Quartier": "Bimbresso", "Type_Capac": "4m3", "Nom": "Carrefour Brimbesso", "X": -4.14966667, "Y": 5.34188889, "Affectatio": "EcoEburnie", "Num_Circu": "CDSM_101", "Amenagemen": "Pas de Plateforme", "Statut": "actif", "time": "17/12/2024", "Num_Coffre": 1, "dateTravaux": null }, "geometry": { "type": "Point", "coordinates": [ -4.14966667, 5.34188889 ] } },
{ "type": "Feature", "properties": { "fid": 206, "Cod": "Son-82", "Commune": "Songon", "Quartier": "Bimbresso", "Type_Capac": "5m3", "Nom": "Carrefour Diallo", "X": -4.14427168, "Y": 5.33983707, "Affectatio": "EcoEburnie", "Num_Circu": "CDSM_101", "Amenagemen": "Pas de Plateforme", "Statut": "actif", "time": "27/12/2024", "Num_Coffre": 1, "dateTravaux": null }, "geometry": { "type": "Point", "coordinates": [ -4.14427168, 5.33983707 ] } },
{ "type": "Feature", "properties": { "fid": 207, "Cod": "Son-83", "Commune": "Songon", "Quartier": "Adiapoté 2", "Type_Capac": "20m3", "Nom": "Adiapoté Cité Éden", "X": -4.17208333, "Y": 5.31416667, "Affectatio": "Précollecte", "Num_Circu": "CDSM_500 - AMPLIROLL/Tt - NOUVEAU", "Amenagemen": "Pas Plateforme", "Statut": "actif", "time": "17/01/2025", "Num_Coffre": 1, "dateTravaux": null }, "geometry": { "type": "Point", "coordinates": [ -4.17208333, 5.31416667 ] } },
{ "type": "Feature", "properties": { "fid": 208, "Cod": "Son-84", "Commune": "Songon", "Quartier": "Ayowahi", "Type_Capac": "5m3", "Nom": "Ayowahi Cité Colas", "X": -4.1807, "Y": 5.3527, "Affectatio": "EcoEburnie", "Num_Circu": "CDSM_PC", "Amenagemen": "Pas de Plateforme", "Statut": "actif", "time": "31/10/2023", "Num_Coffre": 1, "dateTravaux": null }, "geometry": { "type": "Point", "coordinates": [ -4.1807, 5.3527 ] } },
{ "type": "Feature", "properties": { "fid": 209, "Cod": "Son-85", "Commune": "Songon", "Quartier": "Bimbresso", "Type_Capac": "4m3", "Nom": "Carrefour Domark", "X": -4.14656587, "Y": 5.3408032, "Affectatio": "EcoEburnie", "Num_Circu": "CDSM_101", "Amenagemen": "Pas de Plateforme", "Statut": "actif", "time": "27/12/2024", "Num_Coffre": 1, "dateTravaux": null }, "geometry": { "type": "Point", "coordinates": [ -4.14656587, 5.3408032 ] } },
{ "type": "Feature", "properties": { "fid": 210, "Cod": "Son-86", "Commune": "Songon", "Quartier": "Adiapoté 2", "Type_Capac": "20m3", "Nom": "Adiapoté Extension", "X": -4.17894444, "Y": 5.32338889, "Affectatio": "Précollecte", "Num_Circu": "CDSM_500 - AMPLIROLL/Tt - NOUVEAU", "Amenagemen": "Pas Plateforme", "Statut": "actif", "time": "05/04/2025", "Num_Coffre": 1, "dateTravaux": "09/03/2025" }, "geometry": { "type": "Point", "coordinates": [ -4.17894444, 5.32338889 ] } },
{ "type": "Feature", "properties": { "fid": 211, "Cod": "Son-87", "Commune": "Songon", "Quartier": "Abadjin Doumé village", "Type_Capac": "20m3", "Nom": "Abadjin Doumé Marché", "X": -4.14836111, "Y": 5.31647222, "Affectatio": "Précollecte", "Num_Circu": "CDSM_500 - AMPLIROLL/Tt - NOUVEAU", "Amenagemen": "Pas Plateforme", "Statut": "actif", "time": "28/11/2023", "Num_Coffre": 1, "dateTravaux": null }, "geometry": { "type": "Point", "coordinates": [ -4.14836111, 5.31647222 ] } },
{ "type": "Feature", "properties": { "fid": 212, "Cod": "Son-88", "Commune": "Songon", "Quartier": "Institut Pasteur", "Type_Capac": "5m3", "Nom": "Institut Pasteur 3", "X": -4.14044444, "Y": 5.32391667, "Affectatio": "EcoEburnie", "Num_Circu": "CDSM_PC", "Amenagemen": "Pas de Plateforme", "Statut": "actif", "time": "20/05/2025", "Num_Coffre": 1, "dateTravaux": null }, "geometry": { "type": "Point", "coordinates": [ -4.14044444, 5.32391667 ] } },
{ "type": "Feature", "properties": { "fid": 213, "Cod": "Son-89", "Commune": "Songon", "Quartier": "Hévéa", "Type_Capac": "20m3", "Nom": "Hévéa Antenne", "X": -4.19397222, "Y": 5.33252778, "Affectatio": "Précollecte", "Num_Circu": "CDSM_500 - AMPLIROLL/Tt - NOUVEAU", "Amenagemen": "Pas Plateforme", "Statut": "actif", "time": "15/05/2025", "Num_Coffre": 1, "dateTravaux": null }, "geometry": { "type": "Point", "coordinates": [ -4.19397222, 5.33252778 ] } },
{ "type": "Feature", "properties": { "fid": 214, "Cod": "Son-90", "Commune": "Songon", "Quartier": "Hévéa", "Type_Capac": "20m3", "Nom": "Hévéa Marché", "X": -4.19061111, "Y": 5.33291667, "Affectatio": "Précollecte", "Num_Circu": "CDSM_500 - AMPLIROLL/Tt - NOUVEAU", "Amenagemen": "Pas Plateforme", "Statut": "actif", "time": "15/05/2025", "Num_Coffre": 1, "dateTravaux": null }, "geometry": { "type": "Point", "coordinates": [ -4.19061111, 5.33291667 ] } },
{ "type": "Feature", "properties": { "fid": 215, "Cod": "Son-91", "Commune": "Songon", "Quartier": "Songon Attié 1", "Type_Capac": "20m3", "Nom": "Attié 1", "X": -4.22605556, "Y": 5.39069444, "Affectatio": "EcoEburnie", "Num_Circu": "CDSM_506 - AMPLIROLL - SONGON – EEB", "Amenagemen": "Pas de Plateforme", "Statut": "actif", "time": "13/05/2025", "Num_Coffre": 1, "dateTravaux": null }, "geometry": { "type": "Point", "coordinates": [ -4.22605556, 5.39069444 ] } },
{ "type": "Feature", "properties": { "fid": 216, "Cod": "Son-92", "Commune": "Songon", "Quartier": "Adiapoto", "Type_Capac": "5m3", "Nom": "Adiapoto Eglise", "X": -4.19422884, "Y": 5.31361895, "Affectatio": "EcoEburnie", "Num_Circu": "CDSM_PC", "Amenagemen": "Pas de Plateforme", "Statut": "actif", "time": "28/11/2023", "Num_Coffre": 2, "dateTravaux": null }, "geometry": { "type": "Point", "coordinates": [ -4.19422884, 5.31361895 ] } },